,Unnamed: 0_x,Código IBGE,Nome do Município,Código UF,UF,Estado,Latitude,Longitude,municipios_tratados,uf_mun_x,uf_mun2,Unnamed: 0_y,UF1,CIDADE1,count,uf_mun_y
0,0.0,5200050.0,Abadia de Goiás,52.0,GO,Goiás,-16.7573,-49.4412,ABADIA DE GOIAS,GO_ABADIA DE GOIAS,GO_ABADIA DE GOIAS,2268,GO,ABADIA DE GOIAS,6590,GO_ABADIA DE GOIAS
1,1.0,3100104.0,Abadia dos Dourados,31.0,MG,Minas Gerais,-18.4831,-47.3916,ABADIA DOS DOURADOS,MG_ABADIA DOS DOURADOS,MG_ABADIA DOS DOURADOS,2846,MG,ABADIA DOS DOURADOS,8085,MG_ABADIA DOS DOURADOS
2,2.0,5200100.0,Abadiânia,52.0,GO,Goiás,-16.197,-48.7057,ABADIANIA,GO_ABADIANIA,GO_ABADIANIA,2269,GO,ABADIANIA,11250,GO_ABADIANIA
3,3.0,3100203.0,Abaeté,31.0,MG,Minas Gerais,-19.1551,-45.4444,ABAETE,MG_ABAETE,MG_ABAETE,2847,MG,ABAETE,27356,MG_ABAETE
4,4.0,1500107.0,Abaetetuba,15.0,PA,Pará,-1.72183,-48.8788,ABAETETUBA,PA_ABAETETUBA,PA_ABAETETUBA,4726,PA,ABAETETUBA,144503,PA_ABAETETUBA
5,5.0,2300101.0,Abaiara,23.0,CE,Ceará,-7.34588,-39.0416,ABAIARA,CE_ABAIARA,CE_ABAIARA,1161,CE,ABAIARA,8396,CE_ABAIARA
6,6.0,2900108.0,Abaíra,29.0,BA,Bahia,-13.2488,-41.6619,ABAIRA,BA_ABAIRA,BA_ABAIRA,342,BA,ABAIRA,8586,BA_ABAIRA
7,7.0,2900207.0,Abaré,29.0,BA,Bahia,-8.72073,-39.1162,ABARE,BA_ABARE,BA_ABARE,343,BA,ABARE,13430,BA_ABARE
8,8.0,4100103.0,Abatiá,41.0,PR,Paraná,-23.3049,-50.3133,ABATIA,PR_ABATIA,PR_ABATIA,5962,PR,ABATIA,8856,PR_ABATIA
9,9.0,4200051.0,Abdon Batista,42.0,SC,Santa Catarina,-27.6126,-51.0233,ABDON BATISTA,SC_ABDON BATISTA,SC_ABDON BATISTA,8286,SC,ABDON BATISTA,3117,SC_ABDON BATISTA
10,10.0,1500131.0,Abel Figueiredo,15.0,PA,Pará,-4.95333,-48.3933,ABEL FIGUEIREDO,PA_ABEL FIGUEIREDO,PA_ABEL FIGUEIREDO,4727,PA,ABEL FIGUEIREDO,6305,PA_ABEL FIGUEIREDO
11,11.0,4200101.0,Abelardo Luz,42.0,SC,Santa Catarina,-26.5716,-52.3229,ABELARDO LUZ,SC_ABELARDO LUZ,SC_ABELARDO LUZ,8287,SC,ABELARDO LUZ,21510,SC_ABELARDO LUZ
12,12.0,3100302.0,Abre Campo,31.0,MG,Minas Gerais,-20.2996,-42.4743,ABRE CAMPO,MG_ABRE CAMPO,MG_ABRE CAMPO,2850,MG,ABRE CAMPO,15876,MG_ABRE CAMPO
13,13.0,2600054.0,Abreu e Lima,26.0,PE,Pernambuco,-7.90072,-34.8984,ABREU E LIMA,PE_ABREU E LIMA,PE_ABREU E LIMA,5307,PE,ABREU E LIMA,92260,PE_ABREU E LIMA
14,14.0,1700251.0,Abreulândia,17.0,TO,Tocantins,-9.62101,-49.1518,ABREULANDIA,TO_ABREULANDIA,TO_ABREULANDIA,9683,TO,ABREULANDIA,2045,TO_ABREULANDIA
15,15.0,3100401.0,Acaiaca,31.0,MG,Minas Gerais,-20.359,-43.1439,ACAIACA,MG_ACAIACA,MG_ACAIACA,2852,MG,ACAIACA,4750,MG_ACAIACA
16,16.0,2100055.0,Açailândia,21.0,MA,Maranhão,-4.94714,-47.5004,ACAILANDIA,MA_ACAILANDIA,MA_ACAILANDIA,2599,MA,ACAILANDIA,115158,MA_ACAILANDIA
17,17.0,2900306.0,Acajutiba,29.0,BA,Bahia,-11.6575,-38.0197,ACAJUTIBA,BA_ACAJUTIBA,BA_ACAJUTIBA,347,BA,ACAJUTIBA,18534,BA_ACAJUTIBA
18,18.0,1500206.0,Acará,15.0,PA,Pará,-1.95383,-48.1985,ACARA,PA_ACARA,PA_ACARA,4728,PA,ACARA,47835,PA_ACARA
19,19.0,2300150.0,Acarape,23.0,CE,Ceará,-4.22083,-38.7055,ACARAPE,CE_ACARAPE,CE_ACARAPE,1163,CE,ACARAPE,12673,CE_ACARAPE
20,20.0,2300200.0,Acaraú,23.0,CE,Ceará,-2.88769,-40.1183,ACARAU,CE_ACARAU,CE_ACARAU,1164,CE,ACARAU,54326,CE_ACARAU
21,21.0,2400109.0,Acari,24.0,RN,Rio Grande do Norte,-6.4282,-36.6347,ACARI,RN_ACARI,RN_ACARI,7125,RN,ACARI,13405,RN_ACARI
22,22.0,2200053.0,Acauã,22.0,PI,Piauí,-8.21954,-41.0831,ACAUA,PI_ACAUA,PI_ACAUA,5732,PI,ACAUA,4239,PI_ACAUA
23,23.0,4300034.0,Aceguá,43.0,RS,Rio Grande do Sul,-31.8665,-54.1615,ACEGUA,RS_ACEGUA,RS_ACEGUA,7427,RS,ACEGUA,3835,RS_ACEGUA
24,24.0,2300309.0,Acopiara,23.0,CE,Ceará,-6.08911,-39.448,ACOPIARA,CE_ACOPIARA,CE_ACOPIARA,1165,CE,ACOPIARA,47578,CE_ACOPIARA
25,25.0,5100102.0,Acorizal,51.0,MT,Mato Grosso,-15.194,-56.3632,ACORIZAL,MT_ACORIZAL,MT_ACORIZAL,4479,MT,ACORIZAL,5658,MT_ACORIZAL
26,26.0,1200013.0,Acrelândia,12.0,AC,Acre,-9.82581,-66.8972,ACRELANDIA,AC_ACRELANDIA,AC_ACRELANDIA,0,AC,ACRELANDIA,11336,AC_ACRELANDIA
27,27.0,5200134.0,Acreúna,52.0,GO,Goiás,-17.396,-50.3749,ACREUNA,GO_ACREUNA,GO_ACREUNA,2270,GO,ACREUNA,20881,GO_ACREUNA
28,28.0,3100500.0,Açucena,31.0,MG,Minas Gerais,-19.0671,-42.5419,ACUCENA,MG_ACUCENA,MG_ACUCENA,2853,MG,ACUCENA,13908,MG_ACUCENA
29,29.0,3500105.0,Adamantina,35.0,SP,São Paulo,-21.682,-51.0737,ADAMANTINA,SP_ADAMANTINA,SP_ADAMANTINA,8806,SP,ADAMANTINA,43082,SP_ADAMANTINA
30,30.0,5200159.0,Adelândia,52.0,GO,Goiás,-16.4127,-50.1657,ADELANDIA,GO_ADELANDIA,GO_ADELANDIA,2271,GO,ADELANDIA,2984,GO_ADELANDIA
31,31.0,3500204.0,Adolfo,35.0,SP,São Paulo,-21.2325,-49.6451,ADOLFO,SP_ADOLFO,SP_ADOLFO,8807,SP,ADOLFO,4662,SP_ADOLFO
32,32.0,4100202.0,Adrianópolis,41.0,PR,Paraná,-24.6606,-48.9922,ADRIANOPOLIS,PR_ADRIANOPOLIS,PR_ADRIANOPOLIS,5966,PR,ADRIANOPOLIS,8129,PR_ADRIANOPOLIS
33,33.0,2900355.0,Adustina,29.0,BA,Bahia,-10.5437,-38.1113,ADUSTINA,BA_ADUSTINA,BA_ADUSTINA,351,BA,ADUSTINA,12067,BA_ADUSTINA
34,34.0,2600104.0,Afogados da Ingazeira,26.0,PE,Pernambuco,-7.7431199999999984,-37.631,AFOGADOS DA INGAZEIRA,PE_AFOGADOS DA INGAZEIRA,PE_AFOGADOS DA INGAZEIRA,5308,PE,AFOGADOS DA INGAZEIRA,44268,PE_AFOGADOS DA INGAZEIRA
35,35.0,2400307.0,Afonso Bezerra,24.0,RN,Rio Grande do Norte,-5.4922900000000014,-36.5075,AFONSO BEZERRA,RN_AFONSO BEZERRA,RN_AFONSO BEZERRA,7127,RN,AFONSO BEZERRA,9514,RN_AFONSO BEZERRA
36,36.0,3200102.0,Afonso Cláudio,32.0,ES,Espírito Santo,-20.0778,-41.1261,AFONSO CLAUDIO,ES_AFONSO CLAUDIO,ES_AFONSO CLAUDIO,1812,ES,AFONSO CLAUDIO,44121,ES_AFONSO CLAUDIO
37,37.0,2100105.0,Afonso Cunha,21.0,MA,Maranhão,-4.13631,-43.3275,AFONSO CUNHA,MA_AFONSO CUNHA,MA_AFONSO CUNHA,2600,MA,AFONSO CUNHA,7850,MA_AFONSO CUNHA
38,38.0,2600203.0,Afrânio,26.0,PE,Pernambuco,-8.51136,-41.0095,AFRANIO,PE_AFRANIO,PE_AFRANIO,5309,PE,AFRANIO,19448,PE_AFRANIO
39,39.0,1500305.0,Afuá,15.0,PA,Pará,-0.154874,-50.3861,AFUA,PA_AFUA,PA_AFUA,4729,PA,AFUA,20028,PA_AFUA
40,40.0,2600302.0,Agrestina,26.0,PE,Pernambuco,-8.459660000000001,-35.9447,AGRESTINA,PE_AGRESTINA,PE_AGRESTINA,5310,PE,AGRESTINA,27756,PE_AGRESTINA
41,41.0,2200103.0,Agricolândia,22.0,PI,Piauí,-5.79676,-42.6664,AGRICOLANDIA,PI_AGRICOLANDIA,PI_AGRICOLANDIA,5733,PI,AGRICOLANDIA,5597,PI_AGRICOLANDIA
42,42.0,4200200.0,Agrolândia,42.0,SC,Santa Catarina,-27.4087,-49.822,AGROLANDIA,SC_AGROLANDIA,SC_AGROLANDIA,8288,SC,AGROLANDIA,10907,SC_AGROLANDIA
43,43.0,4200309.0,Agronômica,42.0,SC,Santa Catarina,-27.2662,-49.708,AGRONOMICA,SC_AGRONOMICA,SC_AGRONOMICA,8289,SC,AGRONOMICA,5454,SC_AGRONOMICA
44,44.0,1500347.0,Água Azul do Norte,15.0,PA,Pará,-6.79053,-50.4791,AGUA AZUL DO NORTE,PA_AGUA AZUL DO NORTE,PA_AGUA AZUL DO NORTE,4731,PA,AGUA AZUL DO NORTE,7492,PA_AGUA AZUL DO NORTE
45,45.0,3100609.0,Água Boa,31.0,MG,Minas Gerais,-17.9914,-42.3806,AGUA BOA,MG_AGUA BOA,MG_AGUA BOA,2856,MG,AGUA BOA,16591,MG_AGUA BOA
46,46.0,5100201.0,Água Boa,51.0,MT,Mato Grosso,-14.050999999999998,-52.1601,AGUA BOA,MT_AGUA BOA,MT_AGUA BOA,4480,MT,AGUA BOA,22671,MT_AGUA BOA
47,47.0,2700102.0,Água Branca,27.0,AL,Alagoas,-9.262,-37.938,AGUA BRANCA,AL_AGUA BRANCA,AL_AGUA BRANCA,24,AL,AGUA BRANCA,20790,AL_AGUA BRANCA
48,48.0,2200202.0,Água Branca,22.0,PI,Piauí,-5.88856,-42.637,AGUA BRANCA,PI_AGUA BRANCA,PI_AGUA BRANCA,5734,PI,AGUA BRANCA,16656,PI_AGUA BRANCA
49,49.0,2500106.0,Água Branca,25.0,PB,Paraíba,-7.511439999999999,-37.6357,AGUA BRANCA,PB_AGUA BRANCA,PB_AGUA BRANCA,5020,PB,AGUA BRANCA,9034,PB_AGUA BRANCA
50,50.0,5000203.0,Água Clara,50.0,MS,Mato Grosso do Sul,-20.4452,-52.879,AGUA CLARA,MS_AGUA CLARA,MS_AGUA CLARA,4338,MS,AGUA CLARA,13934,MS_AGUA CLARA
51,51.0,3100708.0,Água Comprida,31.0,MG,Minas Gerais,-20.0576,-48.1069,AGUA COMPRIDA,MG_AGUA COMPRIDA,MG_AGUA COMPRIDA,2858,MG,AGUA COMPRIDA,2139,MG_AGUA COMPRIDA
52,52.0,4200408.0,Água Doce,42.0,SC,Santa Catarina,-26.9985,-51.5528,AGUA DOCE,SC_AGUA DOCE,SC_AGUA DOCE,8290,SC,AGUA DOCE,8780,SC_AGUA DOCE
53,53.0,2100154.0,Água Doce do Maranhão,21.0,MA,Maranhão,-2.84048,-42.1189,AGUA DOCE DO MARANHAO,MA_AGUA DOCE DO MARANHAO,MA_AGUA DOCE DO MARANHAO,2601,MA,AGUA DOCE DO MARANHAO,7786,MA_AGUA DOCE DO MARANHAO
54,54.0,3200169.0,Água Doce do Norte,32.0,ES,Espírito Santo,-18.5482,-40.9854,AGUA DOCE DO NORTE,ES_AGUA DOCE DO NORTE,ES_AGUA DOCE DO NORTE,1813,ES,AGUA DOCE DO NORTE,12526,ES_AGUA DOCE DO NORTE
55,55.0,2900405.0,Água Fria,29.0,BA,Bahia,-11.8618,-38.7639,AGUA FRIA,BA_AGUA FRIA,BA_AGUA FRIA,354,BA,AGUA FRIA,15211,BA_AGUA FRIA
56,56.0,5200175.0,Água Fria de Goiás,52.0,GO,Goiás,-14.9778,-47.7823,AGUA FRIA DE GOIAS,GO_AGUA FRIA DE GOIAS,GO_AGUA FRIA DE GOIAS,2272,GO,AGUA FRIA DE GOIAS,3512,GO_AGUA FRIA DE GOIAS
57,57.0,5200209.0,Água Limpa,52.0,GO,Goiás,-18.0771,-48.7603,AGUA LIMPA,GO_AGUA LIMPA,GO_AGUA LIMPA,2273,GO,AGUA LIMPA,2152,GO_AGUA LIMPA
58,58.0,2400406.0,Água Nova,24.0,RN,Rio Grande do Norte,-6.20351,-38.2941,AGUA NOVA,RN_AGUA NOVA,RN_AGUA NOVA,7128,RN,AGUA NOVA,3464,RN_AGUA NOVA
59,59.0,2600401.0,Água Preta,26.0,PE,Pernambuco,-8.70609,-35.5263,AGUA PRETA,PE_AGUA PRETA,PE_AGUA PRETA,5312,PE,AGUA PRETA,33920,PE_AGUA PRETA
60,60.0,4300059.0,Água Santa,43.0,RS,Rio Grande do Sul,-28.1672,-52.03100000000001,AGUA SANTA,RS_AGUA SANTA,RS_AGUA SANTA,7430,RS,AGUA SANTA,3569,RS_AGUA SANTA
61,61.0,3500303.0,Aguaí,35.0,SP,São Paulo,-22.0572,-46.9735,AGUAI,SP_AGUAI,SP_AGUAI,8810,SP,AGUAI,37964,SP_AGUAI
62,62.0,3100807.0,Aguanil,31.0,MG,Minas Gerais,-20.9439,-45.3915,AGUANIL,MG_AGUANIL,MG_AGUANIL,2860,MG,AGUANIL,3916,MG_AGUANIL
63,63.0,2600500.0,Águas Belas,26.0,PE,Pernambuco,-9.11125,-37.1226,AGUAS BELAS,PE_AGUAS BELAS,PE_AGUAS BELAS,5313,PE,AGUAS BELAS,49036,PE_AGUAS BELAS
64,64.0,3500402.0,Águas da Prata,35.0,SP,São Paulo,-21.9319,-46.7176,AGUAS DA PRATA,SP_AGUAS DA PRATA,SP_AGUAS DA PRATA,8811,SP,AGUAS DA PRATA,8908,SP_AGUAS DA PRATA
65,65.0,4200507.0,Águas de Chapecó,42.0,SC,Santa Catarina,-27.0754,-52.9808,AGUAS DE CHAPECO,SC_AGUAS DE CHAPECO,SC_AGUAS DE CHAPECO,8293,SC,AGUAS DE CHAPECO,7563,SC_AGUAS DE CHAPECO
66,66.0,3500501.0,Águas de Lindóia,35.0,SP,São Paulo,-22.4733,-46.6314,AGUAS DE LINDOIA,SP_AGUAS DE LINDOIA,SP_AGUAS DE LINDOIA,8812,SP,AGUAS DE LINDOIA,21955,SP_AGUAS DE LINDOIA
67,67.0,3500550.0,Águas de Santa Bárbara,35.0,SP,São Paulo,-22.8812,-49.2421,AGUAS DE SANTA BARBARA,SP_AGUAS DE SANTA BARBARA,SP_AGUAS DE SANTA BARBARA,8813,SP,AGUAS DE SANTA BARBARA,7131,SP_AGUAS DE SANTA BARBARA
68,68.0,3500600.0,Águas de São Pedro,35.0,SP,São Paulo,-22.5977,-47.8734,AGUAS DE SAO PEDRO,SP_AGUAS DE SAO PEDRO,SP_AGUAS DE SAO PEDRO,8814,SP,AGUAS DE SAO PEDRO,4574,SP_AGUAS DE SAO PEDRO
69,69.0,3100906.0,Águas Formosas,31.0,MG,Minas Gerais,-17.0802,-40.9384,AGUAS FORMOSAS,MG_AGUAS FORMOSAS,MG_AGUAS FORMOSAS,2863,MG,AGUAS FORMOSAS,20562,MG_AGUAS FORMOSAS
70,70.0,4200556.0,Águas Frias,42.0,SC,Santa Catarina,-26.8794,-52.8568,AGUAS FRIAS,SC_AGUAS FRIAS,SC_AGUAS FRIAS,8294,SC,AGUAS FRIAS,2730,SC_AGUAS FRIAS
71,71.0,5200258.0,Águas Lindas de Goiás,52.0,GO,Goiás,-15.7617,-48.2816,AGUAS LINDAS DE GOIAS,GO_AGUAS LINDAS DE GOIAS,GO_AGUAS LINDAS DE GOIAS,2275,GO,AGUAS LINDAS DE GOIAS,84968,GO_AGUAS LINDAS DE GOIAS
72,72.0,4200606.0,Águas Mornas,42.0,SC,Santa Catarina,-27.6963,-48.8243,AGUAS MORNAS,SC_AGUAS MORNAS,SC_AGUAS MORNAS,8295,SC,AGUAS MORNAS,6765,SC_AGUAS MORNAS
73,73.0,3101003.0,Águas Vermelhas,31.0,MG,Minas Gerais,-15.7431,-41.4571,AGUAS VERMELHAS,MG_AGUAS VERMELHAS,MG_AGUAS VERMELHAS,2864,MG,AGUAS VERMELHAS,12747,MG_AGUAS VERMELHAS
74,74.0,4300109.0,Agudo,43.0,RS,Rio Grande do Sul,-29.6447,-53.2515,AGUDO,RS_AGUDO,RS_AGUDO,7433,RS,AGUDO,20728,RS_AGUDO
75,75.0,3500709.0,Agudos,35.0,SP,São Paulo,-22.4694,-48.9863,AGUDOS,SP_AGUDOS,SP_AGUDOS,8815,SP,AGUDOS,41009,SP_AGUDOS
76,76.0,4100301.0,Agudos do Sul,41.0,PR,Paraná,-25.9899,-49.3343,AGUDOS DO SUL,PR_AGUDOS DO SUL,PR_AGUDOS DO SUL,5972,PR,AGUDOS DO SUL,8160,PR_AGUDOS DO SUL
77,77.0,3200136.0,Águia Branca,32.0,ES,Espírito Santo,-18.9846,-40.7437,AGUIA BRANCA,ES_AGUIA BRANCA,ES_AGUIA BRANCA,1814,ES,AGUIA BRANCA,11303,ES_AGUIA BRANCA
78,78.0,2500205.0,Aguiar,25.0,PB,Paraíba,-7.0918,-38.1681,AGUIAR,PB_AGUIAR,PB_AGUIAR,5021,PB,AGUIAR,6193,PB_AGUIAR
79,79.0,1700301.0,Aguiarnópolis,17.0,TO,Tocantins,-6.55409,-47.4702,AGUIARNOPOLIS,TO_AGUIARNOPOLIS,TO_AGUIARNOPOLIS,9684,TO,AGUIARNOPOLIS,3837,TO_AGUIARNOPOLIS
80,80.0,3101102.0,Aimorés,31.0,MG,Minas Gerais,-19.5007,-41.0746,AIMORES,MG_AIMORES,MG_AIMORES,2865,MG,AIMORES,32653,MG_AIMORES
81,81.0,2900603.0,Aiquara,29.0,BA,Bahia,-14.1269,-39.8937,AIQUARA,BA_AIQUARA,BA_AIQUARA,355,BA,AIQUARA,4741,BA_AIQUARA
82,82.0,2300408.0,Aiuaba,23.0,CE,Ceará,-6.5712199999999985,-40.1178,AIUABA,CE_AIUABA,CE_AIUABA,1173,CE,AIUABA,12494,CE_AIUABA
83,83.0,3101201.0,Aiuruoca,31.0,MG,Minas Gerais,-21.9736,-44.6042,AIURUOCA,MG_AIURUOCA,MG_AIURUOCA,2866,MG,AIURUOCA,7656,MG_AIURUOCA
84,84.0,4300208.0,Ajuricaba,43.0,RS,Rio Grande do Sul,-28.2342,-53.7757,AJURICABA,RS_AJURICABA,RS_AJURICABA,7434,RS,AJURICABA,10656,RS_AJURICABA
85,85.0,3101300.0,Alagoa,31.0,MG,Minas Gerais,-22.171,-44.6413,ALAGOA,MG_ALAGOA,MG_ALAGOA,2867,MG,ALAGOA,3323,MG_ALAGOA
86,86.0,2500304.0,Alagoa Grande,25.0,PB,Paraíba,-7.03943,-35.6206,ALAGOA GRANDE,PB_ALAGOA GRANDE,PB_ALAGOA GRANDE,5022,PB,ALAGOA GRANDE,30204,PB_ALAGOA GRANDE
87,87.0,2500403.0,Alagoa Nova,25.0,PB,Paraíba,-7.05377,-35.7591,ALAGOA NOVA,PB_ALAGOA NOVA,PB_ALAGOA NOVA,5023,PB,ALAGOA NOVA,23241,PB_ALAGOA NOVA
88,88.0,2500502.0,Alagoinha,25.0,PB,Paraíba,-6.94657,-35.5332,ALAGOINHA,PB_ALAGOINHA,PB_ALAGOINHA,5024,PB,ALAGOINHA,13378,PB_ALAGOINHA
89,89.0,2600609.0,Alagoinha,26.0,PE,Pernambuco,-8.4665,-36.7788,ALAGOINHA,PE_ALAGOINHA,PE_ALAGOINHA,5314,PE,ALAGOINHA,14316,PE_ALAGOINHA
90,90.0,2200251.0,Alagoinha do Piauí,22.0,PI,Piauí,-7.00039,-40.9282,ALAGOINHA DO PIAUI,PI_ALAGOINHA DO PIAUI,PI_ALAGOINHA DO PIAUI,5735,PI,ALAGOINHA DO PIAUI,7699,PI_ALAGOINHA DO PIAUI
91,91.0,2900702.0,Alagoinhas,29.0,BA,Bahia,-12.1335,-38.4208,ALAGOINHAS,BA_ALAGOINHAS,BA_ALAGOINHAS,356,BA,ALAGOINHAS,139376,BA_ALAGOINHAS
92,92.0,3500758.0,Alambari,35.0,SP,São Paulo,-23.5503,-47.898,ALAMBARI,SP_ALAMBARI,SP_ALAMBARI,8818,SP,ALAMBARI,4755,SP_ALAMBARI
93,93.0,3101409.0,Albertina,31.0,MG,Minas Gerais,-22.2018,-46.6139,ALBERTINA,MG_ALBERTINA,MG_ALBERTINA,2868,MG,ALBERTINA,3216,MG_ALBERTINA
94,94.0,2100204.0,Alcântara,21.0,MA,Maranhão,-2.39574,-44.4062,ALCANTARA,MA_ALCANTARA,MA_ALCANTARA,2602,MA,ALCANTARA,15882,MA_ALCANTARA
95,95.0,2300507.0,Alcântaras,23.0,CE,Ceará,-3.58537,-40.5479,ALCANTARAS,CE_ALCANTARAS,CE_ALCANTARAS,1175,CE,ALCANTARAS,9792,CE_ALCANTARAS
96,96.0,2500536.0,Alcantil,25.0,PB,Paraíba,-7.7366800000000016,-36.0511,ALCANTIL,PB_ALCANTIL,PB_ALCANTIL,5025,PB,ALCANTIL,4635,PB_ALCANTIL
97,97.0,5000252.0,Alcinópolis,50.0,MS,Mato Grosso do Sul,-18.3255,-53.7042,ALCINOPOLIS,MS_ALCINOPOLIS,MS_ALCINOPOLIS,4340,MS,ALCINOPOLIS,4025,MS_ALCINOPOLIS
98,98.0,2900801.0,Alcobaça,29.0,BA,Bahia,-17.5195,-39.2036,ALCOBACA,BA_ALCOBACA,BA_ALCOBACA,357,BA,ALCOBACA,24623,BA_ALCOBACA
99,99.0,2100303.0,Aldeias Altas,21.0,MA,Maranhão,-4.62621,-43.4689,ALDEIAS ALTAS,MA_ALDEIAS ALTAS,MA_ALDEIAS ALTAS,2603,MA,ALDEIAS ALTAS,17097,MA_ALDEIAS ALTAS
100,100.0,4300307.0,Alecrim,43.0,RS,Rio Grande do Sul,-27.6579,-54.7649,ALECRIM,RS_ALECRIM,RS_ALECRIM,7436,RS,ALECRIM,10077,RS_ALECRIM
101,101.0,3200201.0,Alegre,32.0,ES,Espírito Santo,-20.758000000000006,-41.5382,ALEGRE,ES_ALEGRE,ES_ALEGRE,1816,ES,ALEGRE,38188,ES_ALEGRE
102,102.0,4300406.0,Alegrete,43.0,RS,Rio Grande do Sul,-29.7902,-55.7949,ALEGRETE,RS_ALEGRETE,RS_ALEGRETE,7437,RS,ALEGRETE,102887,RS_ALEGRETE
103,103.0,2200277.0,Alegrete do Piauí,22.0,PI,Piauí,-7.2419600000000015,-40.8566,ALEGRETE DO PIAUI,PI_ALEGRETE DO PIAUI,PI_ALEGRETE DO PIAUI,5736,PI,ALEGRETE DO PIAUI,4245,PI_ALEGRETE DO PIAUI
104,104.0,4300455.0,Alegria,43.0,RS,Rio Grande do Sul,-27.8345,-54.0557,ALEGRIA,RS_ALEGRIA,RS_ALEGRIA,7438,RS,ALEGRIA,4954,RS_ALEGRIA
105,105.0,3101508.0,Além Paraíba,31.0,MG,Minas Gerais,-21.8797,-42.7176,ALEM PARAIBA,MG_ALEM PARAIBA,MG_ALEM PARAIBA,2873,MG,ALEM PARAIBA,43341,MG_ALEM PARAIBA
106,106.0,1500404.0,Alenquer,15.0,PA,Pará,-1.94623,-54.7384,ALENQUER,PA_ALENQUER,PA_ALENQUER,4732,PA,ALENQUER,66084,PA_ALENQUER
107,107.0,2400505.0,Alexandria,24.0,RN,Rio Grande do Norte,-6.40533,-38.0142,ALEXANDRIA,RN_ALEXANDRIA,RN_ALEXANDRIA,7129,RN,ALEXANDRIA,16763,RN_ALEXANDRIA
108,108.0,5200308.0,Alexânia,52.0,GO,Goiás,-16.0834,-48.5076,ALEXANIA,GO_ALEXANIA,GO_ALEXANIA,2276,GO,ALEXANIA,25699,GO_ALEXANIA
109,109.0,3101607.0,Alfenas,31.0,MG,Minas Gerais,-21.4256,-45.9477,ALFENAS,MG_ALFENAS,MG_ALFENAS,2875,MG,ALFENAS,78097,MG_ALFENAS
110,110.0,3200300.0,Alfredo Chaves,32.0,ES,Espírito Santo,-20.6396,-40.7543,ALFREDO CHAVES,ES_ALFREDO CHAVES,ES_ALFREDO CHAVES,1817,ES,ALFREDO CHAVES,15463,ES_ALFREDO CHAVES
111,111.0,3500808.0,Alfredo Marcondes,35.0,SP,São Paulo,-21.9527,-51.414,ALFREDO MARCONDES,SP_ALFREDO MARCONDES,SP_ALFREDO MARCONDES,8821,SP,ALFREDO MARCONDES,5106,SP_ALFREDO MARCONDES
112,112.0,3101631.0,Alfredo Vasconcelos,31.0,MG,Minas Gerais,-21.1535,-43.7718,ALFREDO VASCONCELOS,MG_ALFREDO VASCONCELOS,MG_ALFREDO VASCONCELOS,2876,MG,ALFREDO VASCONCELOS,5717,MG_ALFREDO VASCONCELOS
113,113.0,4200705.0,Alfredo Wagner,42.0,SC,Santa Catarina,-27.7001,-49.3273,ALFREDO WAGNER,SC_ALFREDO WAGNER,SC_ALFREDO WAGNER,8298,SC,ALFREDO WAGNER,11083,SC_ALFREDO WAGNER
114,114.0,2500577.0,Algodão de Jandaíra,25.0,PB,Paraíba,-6.892919999999998,-36.0129,ALGODAO DE JANDAIRA,PB_ALGODAO DE JANDAIRA,PB_ALGODAO DE JANDAIRA,5026,PB,ALGODAO DE JANDAIRA,2573,PB_ALGODAO DE JANDAIRA
115,115.0,2500601.0,Alhandra,25.0,PB,Paraíba,-7.429769999999999,-34.9057,ALHANDRA,PB_ALHANDRA,PB_ALHANDRA,5027,PB,ALHANDRA,19048,PB_ALHANDRA
116,116.0,2600708.0,Aliança,26.0,PE,Pernambuco,-7.60398,-35.2227,ALIANCA,PE_ALIANCA,PE_ALIANCA,5317,PE,ALIANCA,39841,PE_ALIANCA
117,117.0,1700350.0,Aliança do Tocantins,17.0,TO,Tocantins,-11.3056,-48.9361,ALIANCA DO TOCANTINS,TO_ALIANCA DO TOCANTINS,TO_ALIANCA DO TOCANTINS,9685,TO,ALIANCA DO TOCANTINS,5971,TO_ALIANCA DO TOCANTINS
118,118.0,2900900.0,Almadina,29.0,BA,Bahia,-14.7089,-39.6415,ALMADINA,BA_ALMADINA,BA_ALMADINA,361,BA,ALMADINA,7441,BA_ALMADINA
119,119.0,1700400.0,Almas,17.0,TO,Tocantins,-11.5706,-47.1792,ALMAS,TO_ALMAS,TO_ALMAS,9686,TO,ALMAS,7770,TO_ALMAS
120,120.0,3101706.0,Almenara,31.0,MG,Minas Gerais,-16.1785,-40.6942,ALMENARA,MG_ALMENARA,MG_ALMENARA,2878,MG,ALMENARA,45848,MG_ALMENARA
121,121.0,2400604.0,Almino Afonso,24.0,RN,Rio Grande do Norte,-6.1475,-37.7636,ALMINO AFONSO,RN_ALMINO AFONSO,RN_ALMINO AFONSO,7130,RN,ALMINO AFONSO,6171,RN_ALMINO AFONSO
122,122.0,4100400.0,Almirante Tamandaré,41.0,PR,Paraná,-25.3188,-49.3037,ALMIRANTE TAMANDARE,PR_ALMIRANTE TAMANDARE,PR_ALMIRANTE TAMANDARE,5975,PR,ALMIRANTE TAMANDARE,109637,PR_ALMIRANTE TAMANDARE
123,123.0,4300471.0,Almirante Tamandaré do Sul,43.0,RS,Rio Grande do Sul,-28.1149,-52.9142,ALMIRANTE TAMANDARE DO SUL,RS_ALMIRANTE TAMANDARE DO SUL,RS_ALMIRANTE TAMANDARE DO SUL,7440,RS,ALMIRANTE TAMANDARE DO SUL,1474,RS_ALMIRANTE TAMANDARE DO SUL
124,124.0,5200506.0,Aloândia,52.0,GO,Goiás,-17.7292,-49.4769,ALOANDIA,GO_ALOANDIA,GO_ALOANDIA,2277,GO,ALOANDIA,2470,GO_ALOANDIA
125,125.0,3101805.0,Alpercata,31.0,MG,Minas Gerais,-18.974,-41.97,ALPERCATA,MG_ALPERCATA,MG_ALPERCATA,2879,MG,ALPERCATA,8893,MG_ALPERCATA
126,126.0,4300505.0,Alpestre,43.0,RS,Rio Grande do Sul,-27.2502,-53.0341,ALPESTRE,RS_ALPESTRE,RS_ALPESTRE,7441,RS,ALPESTRE,11167,RS_ALPESTRE
127,127.0,3101904.0,Alpinópolis,31.0,MG,Minas Gerais,-20.8631,-46.3878,ALPINOPOLIS,MG_ALPINOPOLIS,MG_ALPINOPOLIS,2880,MG,ALPINOPOLIS,21937,MG_ALPINOPOLIS
128,128.0,5100250.0,Alta Floresta,51.0,MT,Mato Grosso,-9.86674,-56.0867,ALTA FLORESTA,MT_ALTA FLORESTA,MT_ALTA FLORESTA,4486,MT,ALTA FLORESTA,65744,MT_ALTA FLORESTA
129,129.0,1100015.0,Alta Floresta D'Oeste,11.0,RO,Rondônia,-11.9283,-61.9953,ALTA FLORESTA D'OESTE,RO_ALTA FLORESTA D'OESTE,RO_ALTA FLORESTA D OESTE,7319,RO,ALTA FLORESTA D OESTE,29958,RO_ALTA FLORESTA D OESTE
130,130.0,3500907.0,Altair,35.0,SP,São Paulo,-20.5242,-49.0571,ALTAIR,SP_ALTAIR,SP_ALTAIR,8822,SP,ALTAIR,4188,SP_ALTAIR
131,131.0,1500602.0,Altamira,15.0,PA,Pará,-3.20407,-52.21,ALTAMIRA,PA_ALTAMIRA,PA_ALTAMIRA,4737,PA,ALTAMIRA,111067,PA_ALTAMIRA
132,132.0,2100402.0,Altamira do Maranhão,21.0,MA,Maranhão,-4.16598,-45.4706,ALTAMIRA DO MARANHAO,MA_ALTAMIRA DO MARANHAO,MA_ALTAMIRA DO MARANHAO,2604,MA,ALTAMIRA DO MARANHAO,6266,MA_ALTAMIRA DO MARANHAO
133,133.0,4100459.0,Altamira do Paraná,41.0,PR,Paraná,-24.7983,-52.7128,ALTAMIRA DO PARANA,PR_ALTAMIRA DO PARANA,PR_ALTAMIRA DO PARANA,5976,PR,ALTAMIRA DO PARANA,5716,PR_ALTAMIRA DO PARANA
134,134.0,2300606.0,Altaneira,23.0,CE,Ceará,-6.99837,-39.7356,ALTANEIRA,CE_ALTANEIRA,CE_ALTANEIRA,1178,CE,ALTANEIRA,7104,CE_ALTANEIRA
135,135.0,3102001.0,Alterosa,31.0,MG,Minas Gerais,-21.2488,-46.1387,ALTEROSA,MG_ALTEROSA,MG_ALTEROSA,2881,MG,ALTEROSA,15073,MG_ALTEROSA
136,136.0,2600807.0,Altinho,26.0,PE,Pernambuco,-8.48482,-36.0644,ALTINHO,PE_ALTINHO,PE_ALTINHO,5318,PE,ALTINHO,23972,PE_ALTINHO
137,137.0,3501004.0,Altinópolis,35.0,SP,São Paulo,-21.0214,-47.3712,ALTINOPOLIS,SP_ALTINOPOLIS,SP_ALTINOPOLIS,8823,SP,ALTINOPOLIS,18464,SP_ALTINOPOLIS
138,138.0,4300554.0,Alto Alegre,43.0,RS,Rio Grande do Sul,-28.7769,-52.9893,ALTO ALEGRE,RS_ALTO ALEGRE,RS_ALTO ALEGRE,7442,RS,ALTO ALEGRE,1993,RS_ALTO ALEGRE
139,139.0,1400050.0,Alto Alegre,14.0,RR,Roraima,2.98858,-61.3072,ALTO ALEGRE,RR_ALTO ALEGRE,RR_ALTO ALEGRE,7409,RR,ALTO ALEGRE,8544,RR_ALTO ALEGRE
140,140.0,3501103.0,Alto Alegre,35.0,SP,São Paulo,-21.5811,-50.168,ALTO ALEGRE,SP_ALTO ALEGRE,SP_ALTO ALEGRE,8824,SP,ALTO ALEGRE,5001,SP_ALTO ALEGRE
141,141.0,2100436.0,Alto Alegre do Maranhão,21.0,MA,Maranhão,-4.213,-44.44600000000001,ALTO ALEGRE DO MARANHAO,MA_ALTO ALEGRE DO MARANHAO,MA_ALTO ALEGRE DO MARANHAO,2605,MA,ALTO ALEGRE DO MARANHAO,15292,MA_ALTO ALEGRE DO MARANHAO
142,142.0,2100477.0,Alto Alegre do Pindaré,21.0,MA,Maranhão,-3.66689,-45.8421,ALTO ALEGRE DO PINDARE,MA_ALTO ALEGRE DO PINDARE,MA_ALTO ALEGRE DO PINDARE,2606,MA,ALTO ALEGRE DO PINDARE,19507,MA_ALTO ALEGRE DO PINDARE
143,143.0,1100379.0,Alto Alegre dos Parecis,11.0,RO,Rondônia,-12.132,-61.835,ALTO ALEGRE DOS PARECIS,RO_ALTO ALEGRE DOS PARECIS,RO_ALTO ALEGRE DOS PARECIS,7321,RO,ALTO ALEGRE DOS PARECIS,10802,RO_ALTO ALEGRE DOS PARECIS
144,144.0,5100300.0,Alto Araguaia,51.0,MT,Mato Grosso,-17.3153,-53.2181,ALTO ARAGUAIA,MT_ALTO ARAGUAIA,MT_ALTO ARAGUAIA,4487,MT,ALTO ARAGUAIA,17514,MT_ALTO ARAGUAIA
145,145.0,4200754.0,Alto Bela Vista,42.0,SC,Santa Catarina,-27.4333,-51.9044,ALTO BELA VISTA,SC_ALTO BELA VISTA,SC_ALTO BELA VISTA,8300,SC,ALTO BELA VISTA,1845,SC_ALTO BELA VISTA
146,146.0,5100359.0,Alto Boa Vista,51.0,MT,Mato Grosso,-11.6732,-51.3883,ALTO BOA VISTA,MT_ALTO BOA VISTA,MT_ALTO BOA VISTA,4488,MT,ALTO BOA VISTA,4768,MT_ALTO BOA VISTA
147,147.0,3102050.0,Alto Caparaó,31.0,MG,Minas Gerais,-20.431,-41.8738,ALTO CAPARAO,MG_ALTO CAPARAO,MG_ALTO CAPARAO,2883,MG,ALTO CAPARAO,4603,MG_ALTO CAPARAO
148,148.0,2400703.0,Alto do Rodrigues,24.0,RN,Rio Grande do Norte,-5.28186,-36.75,ALTO DO RODRIGUES,RN_ALTO DO RODRIGUES,RN_ALTO DO RODRIGUES,7131,RN,ALTO DO RODRIGUES,13816,RN_ALTO DO RODRIGUES
149,149.0,4300570.0,Alto Feliz,43.0,RS,Rio Grande do Sul,-29.3919,-51.3123,ALTO FELIZ,RS_ALTO FELIZ,RS_ALTO FELIZ,7445,RS,ALTO FELIZ,2389,RS_ALTO FELIZ
150,150.0,5100409.0,Alto Garças,51.0,MT,Mato Grosso,-16.9462,-53.5272,ALTO GARCAS,MT_ALTO GARCAS,MT_ALTO GARCAS,4490,MT,ALTO GARCAS,12364,MT_ALTO GARCAS
151,151.0,5200555.0,Alto Horizonte,52.0,GO,Goiás,-14.1978,-49.3378,ALTO HORIZONTE,GO_ALTO HORIZONTE,GO_ALTO HORIZONTE,2278,GO,ALTO HORIZONTE,4039,GO_ALTO HORIZONTE
152,152.0,3153509.0,Alto Jequitibá,31.0,MG,Minas Gerais,-20.4208,-41.967,ALTO JEQUITIBA,MG_ALTO JEQUITIBA,MG_ALTO JEQUITIBA,2886,MG,ALTO JEQUITIBA,9544,MG_ALTO JEQUITIBA
153,153.0,2200301.0,Alto Longá,22.0,PI,Piauí,-5.25634,-42.2096,ALTO LONGA,PI_ALTO LONGA,PI_ALTO LONGA,5737,PI,ALTO LONGA,12338,PI_ALTO LONGA
154,154.0,5100508.0,Alto Paraguai,51.0,MT,Mato Grosso,-14.5137,-56.4776,ALTO PARAGUAI,MT_ALTO PARAGUAI,MT_ALTO PARAGUAI,4492,MT,ALTO PARAGUAI,10428,MT_ALTO PARAGUAI
155,155.0,1100403.0,Alto Paraíso,11.0,RO,Rondônia,-9.71429,-63.3188,ALTO PARAISO,RO_ALTO PARAISO,RO_ALTO PARAISO,7322,RO,ALTO PARAISO,14465,RO_ALTO PARAISO
156,156.0,5200605.0,Alto Paraíso de Goiás,52.0,GO,Goiás,-14.1305,-47.51,ALTO PARAISO DE GOIAS,GO_ALTO PARAISO DE GOIAS,GO_ALTO PARAISO DE GOIAS,2279,GO,ALTO PARAISO DE GOIAS,5790,GO_ALTO PARAISO DE GOIAS
157,157.0,4100608.0,Alto Paraná,41.0,PR,Paraná,-23.1312,-52.3189,ALTO PARANA,PR_ALTO PARANA,PR_ALTO PARANA,5983,PR,ALTO PARANA,14679,PR_ALTO PARANA
158,158.0,2100501.0,Alto Parnaíba,21.0,MA,Maranhão,-9.10273,-45.9303,ALTO PARNAIBA,MA_ALTO PARNAIBA,MA_ALTO PARNAIBA,2607,MA,ALTO PARNAIBA,9735,MA_ALTO PARNAIBA
159,159.0,4100707.0,Alto Piquiri,41.0,PR,Paraná,-24.0224,-53.44,ALTO PIQUIRI,PR_ALTO PIQUIRI,PR_ALTO PIQUIRI,5984,PR,ALTO PIQUIRI,14845,PR_ALTO PIQUIRI
160,160.0,3102100.0,Alto Rio Doce,31.0,MG,Minas Gerais,-21.0281,-43.4067,ALTO RIO DOCE,MG_ALTO RIO DOCE,MG_ALTO RIO DOCE,2888,MG,ALTO RIO DOCE,13324,MG_ALTO RIO DOCE
161,161.0,3200359.0,Alto Rio Novo,32.0,ES,Espírito Santo,-19.0618,-41.0209,ALTO RIO NOVO,ES_ALTO RIO NOVO,ES_ALTO RIO NOVO,1822,ES,ALTO RIO NOVO,9534,ES_ALTO RIO NOVO
162,162.0,2300705.0,Alto Santo,23.0,CE,Ceará,-5.50894,-38.2743,ALTO SANTO,CE_ALTO SANTO,CE_ALTO SANTO,1180,CE,ALTO SANTO,13437,CE_ALTO SANTO
163,163.0,5100607.0,Alto Taquari,51.0,MT,Mato Grosso,-17.8241,-53.2792,ALTO TAQUARI,MT_ALTO TAQUARI,MT_ALTO TAQUARI,4493,MT,ALTO TAQUARI,9143,MT_ALTO TAQUARI
164,164.0,4100509.0,Altônia,41.0,PR,Paraná,-23.8759,-53.8958,ALTONIA,PR_ALTONIA,PR_ALTONIA,5989,PR,ALTONIA,26750,PR_ALTONIA
165,165.0,2200400.0,Altos,22.0,PI,Piauí,-5.038880000000002,-42.4612,ALTOS,PI_ALTOS,PI_ALTOS,5738,PI,ALTOS,38942,PI_ALTOS
166,166.0,3501152.0,Alumínio,35.0,SP,São Paulo,-23.5306,-47.2546,ALUMINIO,SP_ALUMINIO,SP_ALUMINIO,8826,SP,ALUMINIO,17849,SP_ALUMINIO
167,167.0,1300029.0,Alvarães,13.0,AM,Amazonas,-3.22727,-64.8007,ALVARAES,AM_ALVARAES,AM_ALVARAES,194,AM,ALVARAES,8680,AM_ALVARAES
168,168.0,3102209.0,Alvarenga,31.0,MG,Minas Gerais,-19.4174,-41.7317,ALVARENGA,MG_ALVARENGA,MG_ALVARENGA,2891,MG,ALVARENGA,6480,MG_ALVARENGA
169,169.0,3501202.0,Álvares Florence,35.0,SP,São Paulo,-20.3203,-49.9141,ALVARES FLORENCE,SP_ALVARES FLORENCE,SP_ALVARES FLORENCE,8827,SP,ALVARES FLORENCE,4882,SP_ALVARES FLORENCE
170,170.0,3501301.0,Álvares Machado,35.0,SP,São Paulo,-22.0764,-51.4722,ALVARES MACHADO,SP_ALVARES MACHADO,SP_ALVARES MACHADO,8828,SP,ALVARES MACHADO,27053,SP_ALVARES MACHADO
171,171.0,3501400.0,Álvaro de Carvalho,35.0,SP,São Paulo,-22.0841,-49.719,ALVARO DE CARVALHO,SP_ALVARO DE CARVALHO,SP_ALVARO DE CARVALHO,8829,SP,ALVARO DE CARVALHO,5015,SP_ALVARO DE CARVALHO
172,172.0,3501509.0,Alvinlândia,35.0,SP,São Paulo,-22.4435,-49.7623,ALVINLANDIA,SP_ALVINLANDIA,SP_ALVINLANDIA,8830,SP,ALVINLANDIA,3685,SP_ALVINLANDIA
173,173.0,3102308.0,Alvinópolis,31.0,MG,Minas Gerais,-20.1098,-43.0535,ALVINOPOLIS,MG_ALVINOPOLIS,MG_ALVINOPOLIS,2892,MG,ALVINOPOLIS,17800,MG_ALVINOPOLIS
174,174.0,4300604.0,Alvorada,43.0,RS,Rio Grande do Sul,-29.9914,-51.0809,ALVORADA,RS_ALVORADA,RS_ALVORADA,7450,RS,ALVORADA,211096,RS_ALVORADA
175,175.0,1700707.0,Alvorada,17.0,TO,Tocantins,-12.4785,-49.1249,ALVORADA,TO_ALVORADA,TO_ALVORADA,9687,TO,ALVORADA,10266,TO_ALVORADA
176,176.0,1100346.0,Alvorada D'Oeste,11.0,RO,Rondônia,-11.3463,-62.2847,ALVORADA D'OESTE,RO_ALVORADA D'OESTE,RO_ALVORADA D OESTE,7324,RO,ALVORADA D OESTE,16987,RO_ALVORADA D OESTE
177,177.0,3102407.0,Alvorada de Minas,31.0,MG,Minas Gerais,-18.7334,-43.3638,ALVORADA DE MINAS,MG_ALVORADA DE MINAS,MG_ALVORADA DE MINAS,2894,MG,ALVORADA DE MINAS,3816,MG_ALVORADA DE MINAS
178,178.0,2200459.0,Alvorada do Gurguéia,22.0,PI,Piauí,-8.42418,-43.777,ALVORADA DO GURGUEIA,PI_ALVORADA DO GURGUEIA,PI_ALVORADA DO GURGUEIA,5739,PI,ALVORADA DO GURGUEIA,3113,PI_ALVORADA DO GURGUEIA
179,179.0,5200803.0,Alvorada do Norte,52.0,GO,Goiás,-14.4797,-46.49100000000001,ALVORADA DO NORTE,GO_ALVORADA DO NORTE,GO_ALVORADA DO NORTE,2280,GO,ALVORADA DO NORTE,11627,GO_ALVORADA DO NORTE
180,180.0,4100806.0,Alvorada do Sul,41.0,PR,Paraná,-22.7813,-51.2297,ALVORADA DO SUL,PR_ALVORADA DO SUL,PR_ALVORADA DO SUL,5991,PR,ALVORADA DO SUL,10407,PR_ALVORADA DO SUL
181,181.0,1400027.0,Amajari,14.0,RR,Roraima,3.64571,-61.3692,AMAJARI,RR_AMAJARI,RR_AMAJARI,7410,RR,AMAJARI,3349,RR_AMAJARI
182,182.0,5000609.0,Amambai,50.0,MS,Mato Grosso do Sul,-23.1058,-55.2253,AMAMBAI,MS_AMAMBAI,MS_AMAMBAI,4341,MS,AMAMBAI,46474,MS_AMAMBAI
183,183.0,1600105.0,Amapá,16.0,AP,Amapá,2.05267,-50.7957,AMAPA,AP_AMAPA,AP_AMAPA,299,AP,AMAPA,9368,AP_AMAPA
184,184.0,2100550.0,Amapá do Maranhão,21.0,MA,Maranhão,-1.67524,-46.0024,AMAPA DO MARANHAO,MA_AMAPA DO MARANHAO,MA_AMAPA DO MARANHAO,2608,MA,AMAPA DO MARANHAO,5346,MA_AMAPA DO MARANHAO
185,185.0,4100905.0,Amaporã,41.0,PR,Paraná,-23.0943,-52.7866,AMAPORA,PR_AMAPORA,PR_AMAPORA,5992,PR,AMAPORA,6611,PR_AMAPORA
186,186.0,2600906.0,Amaraji,26.0,PE,Pernambuco,-8.37691,-35.4501,AMARAJI,PE_AMARAJI,PE_AMARAJI,5320,PE,AMARAJI,22594,PE_AMARAJI
187,187.0,4300638.0,Amaral Ferrador,43.0,RS,Rio Grande do Sul,-30.8756,-52.2509,AMARAL FERRADOR,RS_AMARAL FERRADOR,RS_AMARAL FERRADOR,7451,RS,AMARAL FERRADOR,6181,RS_AMARAL FERRADOR
188,188.0,5200829.0,Amaralina,52.0,GO,Goiás,-13.9236,-49.2962,AMARALINA,GO_AMARALINA,GO_AMARALINA,2281,GO,AMARALINA,1747,GO_AMARALINA
189,189.0,2200509.0,Amarante,22.0,PI,Piauí,-6.2430400000000015,-42.8433,AMARANTE,PI_AMARANTE,PI_AMARANTE,5740,PI,AMARANTE,16028,PI_AMARANTE
190,190.0,2100600.0,Amarante do Maranhão,21.0,MA,Maranhão,-5.56913,-46.7473,AMARANTE DO MARANHAO,MA_AMARANTE DO MARANHAO,MA_AMARANTE DO MARANHAO,2609,MA,AMARANTE DO MARANHAO,25298,MA_AMARANTE DO MARANHAO
191,191.0,2901007.0,Amargosa,29.0,BA,Bahia,-13.0215,-39.602,AMARGOSA,BA_AMARGOSA,BA_AMARGOSA,364,BA,AMARGOSA,38653,BA_AMARGOSA
192,192.0,1300060.0,Amaturá,13.0,AM,Amazonas,-3.37455,-68.2005,AMATURA,AM_AMATURA,AM_AMATURA,196,AM,AMATURA,6833,AM_AMATURA
193,193.0,2901106.0,Amélia Rodrigues,29.0,BA,Bahia,-12.3914,-38.7563,AMELIA RODRIGUES,BA_AMELIA RODRIGUES,BA_AMELIA RODRIGUES,365,BA,AMELIA RODRIGUES,25132,BA_AMELIA RODRIGUES
194,194.0,2901155.0,América Dourada,29.0,BA,Bahia,-11.4429,-41.43899999999999,AMERICA DOURADA,BA_AMERICA DOURADA,BA_AMERICA DOURADA,366,BA,AMERICA DOURADA,10927,BA_AMERICA DOURADA
195,195.0,3501608.0,Americana,35.0,SP,São Paulo,-22.7374,-47.3331,AMERICANA,SP_AMERICANA,SP_AMERICANA,8833,SP,AMERICANA,298097,SP_AMERICANA
196,196.0,5200852.0,Americano do Brasil,52.0,GO,Goiás,-16.2514,-49.9831,AMERICANO DO BRASIL,GO_AMERICANO DO BRASIL,GO_AMERICANO DO BRASIL,2282,GO,AMERICANO DO BRASIL,5934,GO_AMERICANO DO BRASIL
197,197.0,3501707.0,Américo Brasiliense,35.0,SP,São Paulo,-21.7288,-48.1147,AMERICO BRASILIENSE,SP_AMERICO BRASILIENSE,SP_AMERICO BRASILIENSE,8834,SP,AMERICO BRASILIENSE,39949,SP_AMERICO BRASILIENSE
198,198.0,3501806.0,Américo de Campos,35.0,SP,São Paulo,-20.2985,-49.7359,AMERICO DE CAMPOS,SP_AMERICO DE CAMPOS,SP_AMERICO DE CAMPOS,8835,SP,AMERICO DE CAMPOS,7794,SP_AMERICO DE CAMPOS
199,199.0,4300646.0,Ametista do Sul,43.0,RS,Rio Grande do Sul,-27.3607,-53.183,AMETISTA DO SUL,RS_AMETISTA DO SUL,RS_AMETISTA DO SUL,7452,RS,AMETISTA DO SUL,7197,RS_AMETISTA DO SUL
200,200.0,2300754.0,Amontada,23.0,CE,Ceará,-3.36017,-39.8288,AMONTADA,CE_AMONTADA,CE_AMONTADA,1186,CE,AMONTADA,33840,CE_AMONTADA
201,201.0,5200902.0,Amorinópolis,52.0,GO,Goiás,-16.6151,-51.0919,AMORINOPOLIS,GO_AMORINOPOLIS,GO_AMORINOPOLIS,2283,GO,AMORINOPOLIS,5154,GO_AMORINOPOLIS
202,202.0,2500734.0,Amparo,25.0,PB,Paraíba,-7.55502,-37.0628,AMPARO,PB_AMPARO,PB_AMPARO,5028,PB,AMPARO,2304,PB_AMPARO
203,203.0,3501905.0,Amparo,35.0,SP,São Paulo,-22.7088,-46.772,AMPARO,SP_AMPARO,SP_AMPARO,8836,SP,AMPARO,80322,SP_AMPARO
204,204.0,2800100.0,Amparo de São Francisco,28.0,SE,Sergipe,-10.1348,-36.935,AMPARO DE SAO FRANCISCO,SE_AMPARO DE SAO FRANCISCO,SE_AMPARO DE SAO FRANCISCO,8720,SE,AMPARO DE SAO FRANCISCO,2521,SE_AMPARO DE SAO FRANCISCO
205,205.0,3102506.0,Amparo do Serra,31.0,MG,Minas Gerais,-20.5051,-42.8009,AMPARO DO SERRA,MG_AMPARO DO SERRA,MG_AMPARO DO SERRA,2899,MG,AMPARO DO SERRA,3,MG_AMPARO DO SERRA
206,206.0,4101002.0,Ampére,41.0,PR,Paraná,-25.9168,-53.4686,AMPERE,PR_AMPERE,PR_AMPERE,5994,PR,AMPERE,20157,PR_AMPERE
207,207.0,2700201.0,Anadia,27.0,AL,Alagoas,-9.68489,-36.3078,ANADIA,AL_ANADIA,AL_ANADIA,25,AL,ANADIA,19871,AL_ANADIA
208,208.0,2901205.0,Anagé,29.0,BA,Bahia,-14.6151,-41.1356,ANAGE,BA_ANAGE,BA_ANAGE,368,BA,ANAGE,18434,BA_ANAGE
209,209.0,4101051.0,Anahy,41.0,PR,Paraná,-24.6449,-53.1332,ANAHY,PR_ANAHY,PR_ANAHY,5995,PR,ANAHY,2890,PR_ANAHY
210,210.0,1500701.0,Anajás,15.0,PA,Pará,-0.996811,-49.9354,ANAJAS,PA_ANAJAS,PA_ANAJAS,4740,PA,ANAJAS,18159,PA_ANAJAS
211,211.0,2100709.0,Anajatuba,21.0,MA,Maranhão,-3.26269,-44.6126,ANAJATUBA,MA_ANAJATUBA,MA_ANAJATUBA,2610,MA,ANAJATUBA,18167,MA_ANAJATUBA
212,212.0,3502002.0,Analândia,35.0,SP,São Paulo,-22.1289,-47.6619,ANALANDIA,SP_ANALANDIA,SP_ANALANDIA,8838,SP,ANALANDIA,4266,SP_ANALANDIA
213,213.0,1300086.0,Anamã,13.0,AM,Amazonas,-3.5669699999999995,-61.3963,ANAMA,AM_ANAMA,AM_ANAMA,197,AM,ANAMA,7689,AM_ANAMA
214,214.0,1701002.0,Ananás,17.0,TO,Tocantins,-6.36437,-48.0735,ANANAS,TO_ANANAS,TO_ANANAS,9688,TO,ANANAS,10788,TO_ANANAS
215,215.0,1500800.0,Ananindeua,15.0,PA,Pará,-1.36391,-48.3743,ANANINDEUA,PA_ANANINDEUA,PA_ANANINDEUA,4741,PA,ANANINDEUA,477924,PA_ANANINDEUA
216,216.0,5201108.0,Anápolis,52.0,GO,Goiás,-16.3281,-48.953,ANAPOLIS,GO_ANAPOLIS,GO_ANAPOLIS,2284,GO,ANAPOLIS,382646,GO_ANAPOLIS
217,217.0,1500859.0,Anapu,15.0,PA,Pará,-3.46985,-51.2003,ANAPU,PA_ANAPU,PA_ANAPU,4742,PA,ANAPU,14905,PA_ANAPU
218,218.0,2100808.0,Anapurus,21.0,MA,Maranhão,-3.67577,-43.1014,ANAPURUS,MA_ANAPURUS,MA_ANAPURUS,2611,MA,ANAPURUS,11167,MA_ANAPURUS
219,219.0,5000708.0,Anastácio,50.0,MS,Mato Grosso do Sul,-20.4823,-55.8104,ANASTACIO,MS_ANASTACIO,MS_ANASTACIO,4343,MS,ANASTACIO,26022,MS_ANASTACIO
220,220.0,5000807.0,Anaurilândia,50.0,MS,Mato Grosso do Sul,-22.1852,-52.7191,ANAURILANDIA,MS_ANAURILANDIA,MS_ANAURILANDIA,4344,MS,ANAURILANDIA,8626,MS_ANAURILANDIA
221,221.0,3200409.0,Anchieta,32.0,ES,Espírito Santo,-20.7955,-40.6425,ANCHIETA,ES_ANCHIETA,ES_ANCHIETA,1824,ES,ANCHIETA,26995,ES_ANCHIETA
222,222.0,4200804.0,Anchieta,42.0,SC,Santa Catarina,-26.5382,-53.3319,ANCHIETA,SC_ANCHIETA,SC_ANCHIETA,8303,SC,ANCHIETA,9135,SC_ANCHIETA
223,223.0,2901304.0,Andaraí,29.0,BA,Bahia,-12.8049,-41.3297,ANDARAI,BA_ANDARAI,BA_ANDARAI,369,BA,ANDARAI,13675,BA_ANDARAI
224,224.0,4101101.0,Andirá,41.0,PR,Paraná,-23.0533,-50.2304,ANDIRA,PR_ANDIRA,PR_ANDIRA,5996,PR,ANDIRA,26556,PR_ANDIRA
225,225.0,2901353.0,Andorinha,29.0,BA,Bahia,-10.3482,-39.8391,ANDORINHA,BA_ANDORINHA,BA_ANDORINHA,370,BA,ANDORINHA,15858,BA_ANDORINHA
226,226.0,3102605.0,Andradas,31.0,MG,Minas Gerais,-22.0695,-46.5724,ANDRADAS,MG_ANDRADAS,MG_ANDRADAS,2901,MG,ANDRADAS,44178,MG_ANDRADAS
227,227.0,3502101.0,Andradina,35.0,SP,São Paulo,-20.8948,-51.3786,ANDRADINA,SP_ANDRADINA,SP_ANDRADINA,8840,SP,ANDRADINA,67055,SP_ANDRADINA
228,228.0,4300661.0,André da Rocha,43.0,RS,Rio Grande do Sul,-28.6283,-51.5797,ANDRE DA ROCHA,RS_ANDRE DA ROCHA,RS_ANDRE DA ROCHA,7454,RS,ANDRE DA ROCHA,1321,RS_ANDRE DA ROCHA
229,229.0,3102803.0,Andrelândia,31.0,MG,Minas Gerais,-21.7411,-44.3117,ANDRELANDIA,MG_ANDRELANDIA,MG_ANDRELANDIA,2902,MG,ANDRELANDIA,13993,MG_ANDRELANDIA
230,230.0,3502200.0,Angatuba,35.0,SP,São Paulo,-23.4917,-48.4139,ANGATUBA,SP_ANGATUBA,SP_ANGATUBA,8841,SP,ANGATUBA,25103,SP_ANGATUBA
231,231.0,3102852.0,Angelândia,31.0,MG,Minas Gerais,-17.7279,-42.2641,ANGELANDIA,MG_ANGELANDIA,MG_ANGELANDIA,2905,MG,ANGELANDIA,7603,MG_ANGELANDIA
232,232.0,5000856.0,Angélica,50.0,MS,Mato Grosso do Sul,-22.1527,-53.7708,ANGELICA,MS_ANGELICA,MS_ANGELICA,4345,MS,ANGELICA,10031,MS_ANGELICA
233,233.0,2601003.0,Angelim,26.0,PE,Pernambuco,-8.88429,-36.2902,ANGELIM,PE_ANGELIM,PE_ANGELIM,5322,PE,ANGELIM,12396,PE_ANGELIM
234,234.0,4200903.0,Angelina,42.0,SC,Santa Catarina,-27.5704,-48.9879,ANGELINA,SC_ANGELINA,SC_ANGELINA,8304,SC,ANGELINA,6285,SC_ANGELINA
235,235.0,2901403.0,Angical,29.0,BA,Bahia,-12.0063,-44.7003,ANGICAL,BA_ANGICAL,BA_ANGICAL,371,BA,ANGICAL,13852,BA_ANGICAL
236,236.0,2200608.0,Angical do Piauí,22.0,PI,Piauí,-6.08786,-42.74,ANGICAL DO PIAUI,PI_ANGICAL DO PIAUI,PI_ANGICAL DO PIAUI,5741,PI,ANGICAL DO PIAUI,7076,PI_ANGICAL DO PIAUI
237,237.0,1701051.0,Angico,17.0,TO,Tocantins,-6.39179,-47.8611,ANGICO,TO_ANGICO,TO_ANGICO,9689,TO,ANGICO,2959,TO_ANGICO
238,238.0,2400802.0,Angicos,24.0,RN,Rio Grande do Norte,-5.65792,-36.6094,ANGICOS,RN_ANGICOS,RN_ANGICOS,7132,RN,ANGICOS,15236,RN_ANGICOS
239,239.0,3300100.0,Angra dos Reis,33.0,RJ,Rio de Janeiro,-23.0011,-44.3196,ANGRA DOS REIS,RJ_ANGRA DOS REIS,RJ_ANGRA DOS REIS,6882,RJ,ANGRA DOS REIS,163625,RJ_ANGRA DOS REIS
240,240.0,2901502.0,Anguera,29.0,BA,Bahia,-12.1462,-39.2462,ANGUERA,BA_ANGUERA,BA_ANGUERA,373,BA,ANGUERA,10467,BA_ANGUERA
241,241.0,4101150.0,Ângulo,41.0,PR,Paraná,-23.1946,-51.9154,ANGULO,PR_ANGULO,PR_ANGULO,5999,PR,ANGULO,2968,PR_ANGULO
242,242.0,5201207.0,Anhanguera,52.0,GO,Goiás,-18.3339,-48.2204,ANHANGUERA,GO_ANHANGUERA,GO_ANHANGUERA,2285,GO,ANHANGUERA,1090,GO_ANHANGUERA
243,243.0,3502309.0,Anhembi,35.0,SP,São Paulo,-22.793000000000006,-48.1336,ANHEMBI,SP_ANHEMBI,SP_ANHEMBI,8842,SP,ANHEMBI,5706,SP_ANHEMBI
244,244.0,3502408.0,Anhumas,35.0,SP,São Paulo,-22.2934,-51.3895,ANHUMAS,SP_ANHUMAS,SP_ANHUMAS,8843,SP,ANHUMAS,4377,SP_ANHUMAS
245,245.0,5201306.0,Anicuns,52.0,GO,Goiás,-16.4642,-49.9617,ANICUNS,GO_ANICUNS,GO_ANICUNS,2286,GO,ANICUNS,23569,GO_ANICUNS
246,246.0,2200707.0,Anísio de Abreu,22.0,PI,Piauí,-9.18564,-43.0494,ANISIO DE ABREU,PI_ANISIO DE ABREU,PI_ANISIO DE ABREU,5742,PI,ANISIO DE ABREU,7529,PI_ANISIO DE ABREU
247,247.0,4201000.0,Anita Garibaldi,42.0,SC,Santa Catarina,-27.6897,-51.1271,ANITA GARIBALDI,SC_ANITA GARIBALDI,SC_ANITA GARIBALDI,8305,SC,ANITA GARIBALDI,12007,SC_ANITA GARIBALDI
248,248.0,4201109.0,Anitápolis,42.0,SC,Santa Catarina,-27.9012,-49.1316,ANITAPOLIS,SC_ANITAPOLIS,SC_ANITAPOLIS,8306,SC,ANITAPOLIS,4271,SC_ANITAPOLIS
249,249.0,1300102.0,Anori,13.0,AM,Amazonas,-3.74603,-61.6575,ANORI,AM_ANORI,AM_ANORI,198,AM,ANORI,12443,AM_ANORI
250,250.0,4300703.0,Anta Gorda,43.0,RS,Rio Grande do Sul,-28.9698,-52.0102,ANTA GORDA,RS_ANTA GORDA,RS_ANTA GORDA,7455,RS,ANTA GORDA,7816,RS_ANTA GORDA
251,251.0,2901601.0,Antas,29.0,BA,Bahia,-10.3856,-38.3401,ANTAS,BA_ANTAS,BA_ANTAS,375,BA,ANTAS,13404,BA_ANTAS
252,252.0,4101200.0,Antonina,41.0,PR,Paraná,-25.4386,-48.7191,ANTONINA,PR_ANTONINA,PR_ANTONINA,6001,PR,ANTONINA,22927,PR_ANTONINA
253,253.0,2300804.0,Antonina do Norte,23.0,CE,Ceará,-6.769189999999999,-39.987,ANTONINA DO NORTE,CE_ANTONINA DO NORTE,CE_ANTONINA DO NORTE,1190,CE,ANTONINA DO NORTE,8242,CE_ANTONINA DO NORTE
254,254.0,2200806.0,Antônio Almeida,22.0,PI,Piauí,-7.21276,-44.1889,ANTONIO ALMEIDA,PI_ANTONIO ALMEIDA,PI_ANTONIO ALMEIDA,5743,PI,ANTONIO ALMEIDA,3503,PI_ANTONIO ALMEIDA
255,255.0,2901700.0,Antônio Cardoso,29.0,BA,Bahia,-12.4335,-39.1176,ANTONIO CARDOSO,BA_ANTONIO CARDOSO,BA_ANTONIO CARDOSO,376,BA,ANTONIO CARDOSO,12259,BA_ANTONIO CARDOSO
256,256.0,4201208.0,Antônio Carlos,42.0,SC,Santa Catarina,-27.5191,-48.76600000000001,ANTONIO CARLOS,SC_ANTONIO CARLOS,SC_ANTONIO CARLOS,8308,SC,ANTONIO CARLOS,9145,SC_ANTONIO CARLOS
257,257.0,3102902.0,Antônio Carlos,31.0,MG,Minas Gerais,-21.321,-43.7451,ANTONIO CARLOS,MG_ANTONIO CARLOS,MG_ANTONIO CARLOS,2909,MG,ANTONIO CARLOS,12998,MG_ANTONIO CARLOS
258,258.0,3103009.0,Antônio Dias,31.0,MG,Minas Gerais,-19.6491,-42.8732,ANTONIO DIAS,MG_ANTONIO DIAS,MG_ANTONIO DIAS,2910,MG,ANTONIO DIAS,10121,MG_ANTONIO DIAS
259,259.0,2901809.0,Antônio Gonçalves,29.0,BA,Bahia,-10.5767,-40.2785,ANTONIO GONCALVES,BA_ANTONIO GONCALVES,BA_ANTONIO GONCALVES,377,BA,ANTONIO GONCALVES,10356,BA_ANTONIO GONCALVES
260,260.0,5000906.0,Antônio João,50.0,MS,Mato Grosso do Sul,-22.1927,-55.9517,ANTONIO JOAO,MS_ANTONIO JOAO,MS_ANTONIO JOAO,4347,MS,ANTONIO JOAO,11768,MS_ANTONIO JOAO
261,261.0,2400901.0,Antônio Martins,24.0,RN,Rio Grande do Norte,-6.21367,-37.8834,ANTONIO MARTINS,RN_ANTONIO MARTINS,RN_ANTONIO MARTINS,7133,RN,ANTONIO MARTINS,7872,RN_ANTONIO MARTINS
262,262.0,4101309.0,Antônio Olinto,41.0,PR,Paraná,-25.9804,-50.1972,ANTONIO OLINTO,PR_ANTONIO OLINTO,PR_ANTONIO OLINTO,6002,PR,ANTONIO OLINTO,8238,PR_ANTONIO OLINTO
263,263.0,4300802.0,Antônio Prado,43.0,RS,Rio Grande do Sul,-28.8565,-51.2883,ANTONIO PRADO,RS_ANTONIO PRADO,RS_ANTONIO PRADO,7456,RS,ANTONIO PRADO,16805,RS_ANTONIO PRADO
264,264.0,3103108.0,Antônio Prado de Minas,31.0,MG,Minas Gerais,-21.0192,-42.1109,ANTONIO PRADO DE MINAS,MG_ANTONIO PRADO DE MINAS,MG_ANTONIO PRADO DE MINAS,2914,MG,ANTONIO PRADO DE MINAS,2054,MG_ANTONIO PRADO DE MINAS
265,265.0,3502507.0,Aparecida,35.0,SP,São Paulo,-22.8495,-45.2325,APARECIDA,SP_APARECIDA,SP_APARECIDA,8844,SP,APARECIDA,46041,SP_APARECIDA
266,266.0,2500775.0,Aparecida,25.0,PB,Paraíba,-6.7846600000000015,-38.0803,APARECIDA,PB_APARECIDA,PB_APARECIDA,5029,PB,APARECIDA,6912,PB_APARECIDA
267,267.0,3502606.0,Aparecida d'Oeste,35.0,SP,São Paulo,-20.4487,-50.8835,APARECIDA D'OESTE,SP_APARECIDA D'OESTE,SP_APARECIDA D OESTE,8845,SP,APARECIDA D OESTE,6603,SP_APARECIDA D OESTE
268,268.0,5201405.0,Aparecida de Goiânia,52.0,GO,Goiás,-16.8198,-49.2469,APARECIDA DE GOIANIA,GO_APARECIDA DE GOIANIA,GO_APARECIDA DE GOIANIA,2288,GO,APARECIDA DE GOIANIA,428724,GO_APARECIDA DE GOIANIA
269,269.0,5201454.0,Aparecida do Rio Doce,52.0,GO,Goiás,-18.2941,-51.1516,APARECIDA DO RIO DOCE,GO_APARECIDA DO RIO DOCE,GO_APARECIDA DO RIO DOCE,2291,GO,APARECIDA DO RIO DOCE,3007,GO_APARECIDA DO RIO DOCE
270,270.0,1701101.0,Aparecida do Rio Negro,17.0,TO,Tocantins,-9.94139,-47.9638,APARECIDA DO RIO NEGRO,TO_APARECIDA DO RIO NEGRO,TO_APARECIDA DO RIO NEGRO,9690,TO,APARECIDA DO RIO NEGRO,3813,TO_APARECIDA DO RIO NEGRO
271,271.0,5001003.0,Aparecida do Taboado,50.0,MS,Mato Grosso do Sul,-20.0873,-51.0961,APARECIDA DO TABOADO,MS_APARECIDA DO TABOADO,MS_APARECIDA DO TABOADO,4348,MS,APARECIDA DO TABOADO,29229,MS_APARECIDA DO TABOADO
272,272.0,3300159.0,Aperibé,33.0,RJ,Rio de Janeiro,-21.6252,-42.1017,APERIBE,RJ_APERIBE,RJ_APERIBE,6884,RJ,APERIBE,9884,RJ_APERIBE
273,273.0,3200508.0,Apiacá,32.0,ES,Espírito Santo,-21.1523,-41.5693,APIACA,ES_APIACA,ES_APIACA,1827,ES,APIACA,8412,ES_APIACA
274,274.0,5100805.0,Apiacás,51.0,MT,Mato Grosso,-9.53981,-57.4587,APIACAS,MT_APIACAS,MT_APIACAS,4495,MT,APIACAS,7010,MT_APIACAS
275,275.0,3502705.0,Apiaí,35.0,SP,São Paulo,-24.5108,-48.8443,APIAI,SP_APIAI,SP_APIAI,8849,SP,APIAI,31297,SP_APIAI
276,276.0,2100832.0,Apicum-Açu,21.0,MA,Maranhão,-1.45862,-45.0864,APICUM-ACU,MA_APICUM-ACU,MA_APICUM ACU,2612,MA,APICUM ACU,10646,MA_APICUM ACU
277,277.0,4201257.0,Apiúna,42.0,SC,Santa Catarina,-27.0375,-49.3885,APIUNA,SC_APIUNA,SC_APIUNA,8309,SC,APIUNA,9534,SC_APIUNA
278,278.0,2401008.0,Apodi,24.0,RN,Rio Grande do Norte,-5.6534900000000015,-37.7946,APODI,RN_APODI,RN_APODI,7134,RN,APODI,38649,RN_APODI
279,279.0,2901908.0,Aporá,29.0,BA,Bahia,-11.6577,-38.0814,APORA,BA_APORA,BA_APORA,378,BA,APORA,14425,BA_APORA
280,280.0,5201504.0,Aporé,52.0,GO,Goiás,-18.9607,-51.9232,APORE,GO_APORE,GO_APORE,2292,GO,APORE,3756,GO_APORE
281,281.0,2901957.0,Apuarema,29.0,BA,Bahia,-13.8542,-39.7501,APUAREMA,BA_APUAREMA,BA_APUAREMA,379,BA,APUAREMA,6072,BA_APUAREMA
282,282.0,4101408.0,Apucarana,41.0,PR,Paraná,-23.55,-51.4635,APUCARANA,PR_APUCARANA,PR_APUCARANA,6007,PR,APUCARANA,135333,PR_APUCARANA
283,283.0,1300144.0,Apuí,13.0,AM,Amazonas,-7.194089999999999,-59.896,APUI,AM_APUI,AM_APUI,199,AM,APUI,11109,AM_APUI
284,284.0,2300903.0,Apuiarés,23.0,CE,Ceará,-3.94506,-39.4359,APUIARES,CE_APUIARES,CE_APUIARES,1194,CE,APUIARES,13177,CE_APUIARES
285,285.0,2800209.0,Aquidabã,28.0,SE,Sergipe,-10.278,-37.0148,AQUIDABA,SE_AQUIDABA,SE_AQUIDABA,8721,SE,AQUIDABA,22651,SE_AQUIDABA
286,286.0,5001102.0,Aquidauana,50.0,MS,Mato Grosso do Sul,-20.4666,-55.7868,AQUIDAUANA,MS_AQUIDAUANA,MS_AQUIDAUANA,4349,MS,AQUIDAUANA,52546,MS_AQUIDAUANA
287,287.0,2301000.0,Aquiraz,23.0,CE,Ceará,-3.89929,-38.3896,AQUIRAZ,CE_AQUIRAZ,CE_AQUIRAZ,1195,CE,AQUIRAZ,59610,CE_AQUIRAZ
288,288.0,4201273.0,Arabutã,42.0,SC,Santa Catarina,-27.1587,-52.1423,ARABUTA,SC_ARABUTA,SC_ARABUTA,8310,SC,ARABUTA,4431,SC_ARABUTA
289,289.0,2500809.0,Araçagi,25.0,PB,Paraíba,-6.84374,-35.3737,ARACAGI,PB_ARACAGI,PB_ARACAGI,5030,PB,ARACAGI,16658,PB_ARACAGI
290,290.0,3103207.0,Araçaí,31.0,MG,Minas Gerais,-19.1955,-44.2493,ARACAI,MG_ARACAI,MG_ARACAI,2918,MG,ARACAI,2477,MG_ARACAI
291,291.0,2800308.0,Aracaju,28.0,SE,Sergipe,-10.9091,-37.0677,ARACAJU,SE_ARACAJU,SE_ARACAJU,8722,SE,ARACAJU,683694,SE_ARACAJU
292,292.0,3502754.0,Araçariguama,35.0,SP,São Paulo,-23.4366,-47.0608,ARACARIGUAMA,SP_ARACARIGUAMA,SP_ARACARIGUAMA,8854,SP,ARACARIGUAMA,17610,SP_ARACARIGUAMA
293,293.0,2902054.0,Araças,29.0,BA,Bahia,-12.22,-38.2027,ARACAS,BA_ARACAS,BA_ARACAS,380,BA,ARACAS,10070,BA_ARACAS
294,294.0,2301109.0,Aracati,23.0,CE,Ceará,-4.55826,-37.7679,ARACATI,CE_ARACATI,CE_ARACATI,1197,CE,ARACATI,74272,CE_ARACATI
295,295.0,2902005.0,Aracatu,29.0,BA,Bahia,-14.428,-41.4648,ARACATU,BA_ARACATU,BA_ARACATU,381,BA,ARACATU,13721,BA_ARACATU
296,296.0,3502804.0,Araçatuba,35.0,SP,São Paulo,-21.2076,-50.4401,ARACATUBA,SP_ARACATUBA,SP_ARACATUBA,8855,SP,ARACATUBA,230855,SP_ARACATUBA
297,297.0,2902104.0,Araci,29.0,BA,Bahia,-11.3253,-38.9584,ARACI,BA_ARACI,BA_ARACI,382,BA,ARACI,45502,BA_ARACI
298,298.0,3103306.0,Aracitaba,31.0,MG,Minas Gerais,-21.3446,-43.3736,ARACITABA,MG_ARACITABA,MG_ARACITABA,2921,MG,ARACITABA,2503,MG_ARACITABA
299,299.0,2601052.0,Araçoiaba,26.0,PE,Pernambuco,-7.78391,-35.0809,ARACOIABA,PE_ARACOIABA,PE_ARACOIABA,5324,PE,ARACOIABA,15865,PE_ARACOIABA
300,300.0,2301208.0,Aracoiaba,23.0,CE,Ceará,-4.36872,-38.8125,ARACOIABA,CE_ARACOIABA,CE_ARACOIABA,1200,CE,ARACOIABA,26937,CE_ARACOIABA
301,301.0,3502903.0,Araçoiaba da Serra,35.0,SP,São Paulo,-23.5029,-47.6166,ARACOIABA DA SERRA,SP_ARACOIABA DA SERRA,SP_ARACOIABA DA SERRA,8856,SP,ARACOIABA DA SERRA,34308,SP_ARACOIABA DA SERRA
302,302.0,3200607.0,Aracruz,32.0,ES,Espírito Santo,-19.82,-40.2764,ARACRUZ,ES_ARACRUZ,ES_ARACRUZ,1830,ES,ARACRUZ,99457,ES_ARACRUZ
303,303.0,5201603.0,Araçu,52.0,GO,Goiás,-16.3563,-49.6804,ARACU,GO_ARACU,GO_ARACU,2293,GO,ARACU,4766,GO_ARACU
304,304.0,3103405.0,Araçuaí,31.0,MG,Minas Gerais,-16.8523,-42.0637,ARACUAI,MG_ARACUAI,MG_ARACUAI,2922,MG,ARACUAI,39273,MG_ARACUAI
305,305.0,5201702.0,Aragarças,52.0,GO,Goiás,-15.8955,-52.2372,ARAGARCAS,GO_ARAGARCAS,GO_ARAGARCAS,2294,GO,ARAGARCAS,18732,GO_ARAGARCAS
306,306.0,5201801.0,Aragoiânia,52.0,GO,Goiás,-16.9087,-49.4476,ARAGOIANIA,GO_ARAGOIANIA,GO_ARAGOIANIA,2295,GO,ARAGOIANIA,7349,GO_ARAGOIANIA
307,307.0,1701309.0,Aragominas,17.0,TO,Tocantins,-7.16005,-48.5291,ARAGOMINAS,TO_ARAGOMINAS,TO_ARAGOMINAS,9691,TO,ARAGOMINAS,4016,TO_ARAGOMINAS
308,308.0,1701903.0,Araguacema,17.0,TO,Tocantins,-8.80755,-49.5569,ARAGUACEMA,TO_ARAGUACEMA,TO_ARAGUACEMA,9692,TO,ARAGUACEMA,6239,TO_ARAGUACEMA
309,309.0,1702000.0,Araguaçu,17.0,TO,Tocantins,-12.9289,-49.8231,ARAGUACU,TO_ARAGUACU,TO_ARAGUACU,9693,TO,ARAGUACU,10497,TO_ARAGUACU
310,310.0,5101001.0,Araguaiana,51.0,MT,Mato Grosso,-15.7291,-51.8341,ARAGUAIANA,MT_ARAGUAIANA,MT_ARAGUAIANA,4496,MT,ARAGUAIANA,3064,MT_ARAGUAIANA
311,311.0,1702109.0,Araguaína,17.0,TO,Tocantins,-7.19238,-48.2044,ARAGUAINA,TO_ARAGUAINA,TO_ARAGUAINA,9694,TO,ARAGUAINA,189396,TO_ARAGUAINA
312,312.0,5101209.0,Araguainha,51.0,MT,Mato Grosso,-16.857,-53.0318,ARAGUAINHA,MT_ARAGUAINHA,MT_ARAGUAINHA,4497,MT,ARAGUAINHA,1429,MT_ARAGUAINHA
313,313.0,2100873.0,Araguanã,21.0,MA,Maranhão,-2.94644,-45.6589,ARAGUANA,MA_ARAGUANA,MA_ARAGUANA,2613,MA,ARAGUANA,6847,MA_ARAGUANA
314,314.0,1702158.0,Araguanã,17.0,TO,Tocantins,-6.58225,-48.6395,ARAGUANA,TO_ARAGUANA,TO_ARAGUANA,9695,TO,ARAGUANA,4446,TO_ARAGUANA
315,315.0,5202155.0,Araguapaz,52.0,GO,Goiás,-15.0909,-50.6315,ARAGUAPAZ,GO_ARAGUAPAZ,GO_ARAGUAPAZ,2296,GO,ARAGUAPAZ,7722,GO_ARAGUAPAZ
316,316.0,3103504.0,Araguari,31.0,MG,Minas Gerais,-18.6456,-48.1934,ARAGUARI,MG_ARAGUARI,MG_ARAGUARI,2923,MG,ARAGUARI,127638,MG_ARAGUARI
317,317.0,1702208.0,Araguatins,17.0,TO,Tocantins,-5.64659,-48.1232,ARAGUATINS,TO_ARAGUATINS,TO_ARAGUATINS,9696,TO,ARAGUATINS,32749,TO_ARAGUATINS
318,318.0,2100907.0,Araioses,21.0,MA,Maranhão,-2.89091,-41.905,ARAIOSES,MA_ARAIOSES,MA_ARAIOSES,2614,MA,ARAIOSES,31332,MA_ARAIOSES
319,319.0,5001243.0,Aral Moreira,50.0,MS,Mato Grosso do Sul,-22.9385,-55.6334,ARAL MOREIRA,MS_ARAL MOREIRA,MS_ARAL MOREIRA,4350,MS,ARAL MOREIRA,8717,MS_ARAL MOREIRA
320,320.0,2902203.0,Aramari,29.0,BA,Bahia,-12.0884,-38.4969,ARAMARI,BA_ARAMARI,BA_ARAMARI,383,BA,ARAMARI,9780,BA_ARAMARI
321,321.0,4300851.0,Arambaré,43.0,RS,Rio Grande do Sul,-30.9092,-51.5046,ARAMBARE,RS_ARAMBARE,RS_ARAMBARE,7457,RS,ARAMBARE,3802,RS_ARAMBARE
322,322.0,2100956.0,Arame,21.0,MA,Maranhão,-4.88347,-46.0032,ARAME,MA_ARAME,MA_ARAME,2615,MA,ARAME,25188,MA_ARAME
323,323.0,3503000.0,Aramina,35.0,SP,São Paulo,-20.0882,-47.7873,ARAMINA,SP_ARAMINA,SP_ARAMINA,8857,SP,ARAMINA,6218,SP_ARAMINA
324,324.0,3503109.0,Arandu,35.0,SP,São Paulo,-23.1386,-49.0487,ARANDU,SP_ARANDU,SP_ARANDU,8858,SP,ARANDU,6573,SP_ARANDU
325,325.0,3103603.0,Arantina,31.0,MG,Minas Gerais,-21.9102,-44.2555,ARANTINA,MG_ARANTINA,MG_ARANTINA,2926,MG,ARANTINA,3807,MG_ARANTINA
326,326.0,3503158.0,Arapeí,35.0,SP,São Paulo,-22.6717,-44.4441,ARAPEI,SP_ARAPEI,SP_ARAPEI,8859,SP,ARAPEI,2716,SP_ARAPEI
327,327.0,2700300.0,Arapiraca,27.0,AL,Alagoas,-9.75487,-36.6615,ARAPIRACA,AL_ARAPIRACA,AL_ARAPIRACA,29,AL,ARAPIRACA,233825,AL_ARAPIRACA
328,328.0,1702307.0,Arapoema,17.0,TO,Tocantins,-7.65463,-49.0637,ARAPOEMA,TO_ARAPOEMA,TO_ARAPOEMA,9697,TO,ARAPOEMA,8453,TO_ARAPOEMA
329,329.0,3103702.0,Araponga,31.0,MG,Minas Gerais,-20.6686,-42.5178,ARAPONGA,MG_ARAPONGA,MG_ARAPONGA,2927,MG,ARAPONGA,8362,MG_ARAPONGA
330,330.0,4101507.0,Arapongas,41.0,PR,Paraná,-23.4153,-51.4259,ARAPONGAS,PR_ARAPONGAS,PR_ARAPONGAS,6010,PR,ARAPONGAS,129072,PR_ARAPONGAS
331,331.0,3103751.0,Araporã,31.0,MG,Minas Gerais,-18.4357,-49.1847,ARAPORA,MG_ARAPORA,MG_ARAPORA,2928,MG,ARAPORA,5127,MG_ARAPORA
332,332.0,4101606.0,Arapoti,41.0,PR,Paraná,-24.1548,-49.8285,ARAPOTI,PR_ARAPOTI,PR_ARAPOTI,6011,PR,ARAPOTI,29305,PR_ARAPOTI
333,333.0,4101655.0,Arapuã,41.0,PR,Paraná,-24.3132,-51.7856,ARAPUA,PR_ARAPUA,PR_ARAPUA,6012,PR,ARAPUA,4011,PR_ARAPUA
334,334.0,3103801.0,Arapuá,31.0,MG,Minas Gerais,-19.0268,-46.1484,ARAPUA,MG_ARAPUA,MG_ARAPUA,2929,MG,ARAPUA,3205,MG_ARAPUA
335,335.0,5101258.0,Araputanga,51.0,MT,Mato Grosso,-15.4641,-58.3425,ARAPUTANGA,MT_ARAPUTANGA,MT_ARAPUTANGA,4498,MT,ARAPUTANGA,18505,MT_ARAPUTANGA
336,336.0,4201307.0,Araquari,42.0,SC,Santa Catarina,-26.3754,-48.7188,ARAQUARI,SC_ARAQUARI,SC_ARAQUARI,8311,SC,ARAQUARI,24859,SC_ARAQUARI
337,337.0,2500908.0,Arara,25.0,PB,Paraíba,-6.828130000000002,-35.7552,ARARA,PB_ARARA,PB_ARARA,5031,PB,ARARA,12785,PB_ARARA
338,338.0,4201406.0,Araranguá,42.0,SC,Santa Catarina,-28.9356,-49.4918,ARARANGUA,SC_ARARANGUA,SC_ARARANGUA,8312,SC,ARARANGUA,54538,SC_ARARANGUA
339,339.0,3503208.0,Araraquara,35.0,SP,São Paulo,-21.7845,-48.178,ARARAQUARA,SP_ARARAQUARA,SP_ARARAQUARA,8860,SP,ARARAQUARA,259601,SP_ARARAQUARA
340,340.0,3503307.0,Araras,35.0,SP,São Paulo,-22.3572,-47.3842,ARARAS,SP_ARARAS,SP_ARARAS,8861,SP,ARARAS,143136,SP_ARARAS
341,341.0,2301257.0,Ararendá,23.0,CE,Ceará,-4.74567,-40.831,ARARENDA,CE_ARARENDA,CE_ARARENDA,1207,CE,ARARENDA,9062,CE_ARARENDA
342,342.0,2101004.0,Arari,21.0,MA,Maranhão,-3.45214,-44.7665,ARARI,MA_ARARI,MA_ARARI,2616,MA,ARARI,25608,MA_ARARI
343,343.0,4300877.0,Araricá,43.0,RS,Rio Grande do Sul,-29.6168,-50.9291,ARARICA,RS_ARARICA,RS_ARARICA,7458,RS,ARARICA,5474,RS_ARARICA
344,344.0,2301307.0,Araripe,23.0,CE,Ceará,-7.213189999999999,-40.1359,ARARIPE,CE_ARARIPE,CE_ARARIPE,1208,CE,ARARIPE,21173,CE_ARARIPE
345,345.0,2601102.0,Araripina,26.0,PE,Pernambuco,-7.57073,-40.494,ARARIPINA,PE_ARARIPINA,PE_ARARIPINA,5325,PE,ARARIPINA,81635,PE_ARARIPINA
346,346.0,3300209.0,Araruama,33.0,RJ,Rio de Janeiro,-22.8697,-42.3326,ARARUAMA,RJ_ARARUAMA,RJ_ARARUAMA,6885,RJ,ARARUAMA,130507,RJ_ARARUAMA
347,347.0,2501005.0,Araruna,25.0,PB,Paraíba,-6.5484800000000005,-35.7498,ARARUNA,PB_ARARUNA,PB_ARARUNA,5032,PB,ARARUNA,17707,PB_ARARUNA
348,348.0,4101705.0,Araruna,41.0,PR,Paraná,-23.9315,-52.5021,ARARUNA,PR_ARARUNA,PR_ARARUNA,6014,PR,ARARUNA,15946,PR_ARARUNA
349,349.0,2902252.0,Arataca,29.0,BA,Bahia,-15.2651,-39.419,ARATACA,BA_ARATACA,BA_ARATACA,385,BA,ARATACA,8709,BA_ARATACA
350,350.0,4300901.0,Aratiba,43.0,RS,Rio Grande do Sul,-27.3978,-52.2975,ARATIBA,RS_ARATIBA,RS_ARATIBA,7459,RS,ARATIBA,9457,RS_ARATIBA
351,351.0,2301406.0,Aratuba,23.0,CE,Ceará,-4.4122900000000005,-39.0471,ARATUBA,CE_ARATUBA,CE_ARATUBA,1212,CE,ARATUBA,12679,CE_ARATUBA
352,352.0,2902302.0,Aratuípe,29.0,BA,Bahia,-13.0716,-39.0038,ARATUIPE,BA_ARATUIPE,BA_ARATUIPE,386,BA,ARATUIPE,8484,BA_ARATUIPE
353,353.0,2800407.0,Arauá,28.0,SE,Sergipe,-11.2614,-37.6201,ARAUA,SE_ARAUA,SE_ARAUA,8723,SE,ARAUA,10903,SE_ARAUA
354,354.0,4101804.0,Araucária,41.0,PR,Paraná,-25.5859,-49.4047,ARAUCARIA,PR_ARAUCARIA,PR_ARAUCARIA,6015,PR,ARAUCARIA,147509,PR_ARAUCARIA
355,355.0,3103900.0,Araújos,31.0,MG,Minas Gerais,-19.9405,-45.1671,ARAUJOS,MG_ARAUJOS,MG_ARAUJOS,2930,MG,ARAUJOS,9127,MG_ARAUJOS
356,356.0,3104007.0,Araxá,31.0,MG,Minas Gerais,-19.5902,-46.9438,ARAXA,MG_ARAXA,MG_ARAXA,2932,MG,ARAXA,117292,MG_ARAXA
357,357.0,3104106.0,Arceburgo,31.0,MG,Minas Gerais,-21.359,-46.9401,ARCEBURGO,MG_ARCEBURGO,MG_ARCEBURGO,2933,MG,ARCEBURGO,10543,MG_ARCEBURGO
358,358.0,3503356.0,Arco-Íris,35.0,SP,São Paulo,-21.7728,-50.466,ARCO-IRIS,SP_ARCO-IRIS,SP_ARCO IRIS,8864,SP,ARCO IRIS,1634,SP_ARCO IRIS
359,359.0,3104205.0,Arcos,31.0,MG,Minas Gerais,-20.2863,-45.5373,ARCOS,MG_ARCOS,MG_ARCOS,2934,MG,ARCOS,41852,MG_ARCOS
360,360.0,2601201.0,Arcoverde,26.0,PE,Pernambuco,-8.415189999999999,-37.0577,ARCOVERDE,PE_ARCOVERDE,PE_ARCOVERDE,5326,PE,ARCOVERDE,78084,PE_ARCOVERDE
361,361.0,3104304.0,Areado,31.0,MG,Minas Gerais,-21.3572,-46.1421,AREADO,MG_AREADO,MG_AREADO,2935,MG,AREADO,16528,MG_AREADO
362,362.0,3300225.0,Areal,33.0,RJ,Rio de Janeiro,-22.2283,-43.1118,AREAL,RJ_AREAL,RJ_AREAL,6886,RJ,AREAL,12811,RJ_AREAL
363,363.0,3503406.0,Arealva,35.0,SP,São Paulo,-22.031,-48.9135,AREALVA,SP_AREALVA,SP_AREALVA,8865,SP,AREALVA,8580,SP_AREALVA
364,364.0,2501104.0,Areia,25.0,PB,Paraíba,-6.96396,-35.6977,AREIA,PB_AREIA,PB_AREIA,5033,PB,AREIA,31088,PB_AREIA
365,365.0,2401107.0,Areia Branca,24.0,RN,Rio Grande do Norte,-4.95254,-37.1252,AREIA BRANCA,RN_AREIA BRANCA,RN_AREIA BRANCA,7135,RN,AREIA BRANCA,31591,RN_AREIA BRANCA
366,366.0,2800506.0,Areia Branca,28.0,SE,Sergipe,-10.758,-37.3251,AREIA BRANCA,SE_AREIA BRANCA,SE_AREIA BRANCA,8724,SE,AREIA BRANCA,14475,SE_AREIA BRANCA
367,367.0,2501153.0,Areia de Baraúnas,25.0,PB,Paraíba,-7.11702,-36.9404,AREIA DE BARAUNAS,PB_AREIA DE BARAUNAS,PB_AREIA DE BARAUNAS,5034,PB,AREIA DE BARAUNAS,1700,PB_AREIA DE BARAUNAS
368,368.0,2501203.0,Areial,25.0,PB,Paraíba,-7.04789,-35.9313,AREIAL,PB_AREIAL,PB_AREIAL,5035,PB,AREIAL,7237,PB_AREIAL
369,369.0,3503505.0,Areias,35.0,SP,São Paulo,-22.5786,-44.6992,AREIAS,SP_AREIAS,SP_AREIAS,8866,SP,AREIAS,4165,SP_AREIAS
370,370.0,3503604.0,Areiópolis,35.0,SP,São Paulo,-22.6672,-48.6681,AREIOPOLIS,SP_AREIOPOLIS,SP_AREIOPOLIS,8867,SP,AREIOPOLIS,13064,SP_AREIOPOLIS
371,371.0,5101308.0,Arenápolis,51.0,MT,Mato Grosso,-14.4472,-56.8437,ARENAPOLIS,MT_ARENAPOLIS,MT_ARENAPOLIS,4499,MT,ARENAPOLIS,14648,MT_ARENAPOLIS
372,372.0,5202353.0,Arenópolis,52.0,GO,Goiás,-16.3837,-51.5563,ARENOPOLIS,GO_ARENOPOLIS,GO_ARENOPOLIS,2298,GO,ARENOPOLIS,3247,GO_ARENOPOLIS
373,373.0,2401206.0,Arês,24.0,RN,Rio Grande do Norte,-6.18831,-35.1608,ARES,RN_ARES,RN_ARES,7136,RN,ARES,2944,RN_ARES
374,374.0,3104403.0,Argirita,31.0,MG,Minas Gerais,-21.6083,-42.8292,ARGIRITA,MG_ARGIRITA,MG_ARGIRITA,2936,MG,ARGIRITA,3666,MG_ARGIRITA
375,375.0,3104452.0,Aricanduva,31.0,MG,Minas Gerais,-17.8666,-42.5533,ARICANDUVA,MG_ARICANDUVA,MG_ARICANDUVA,2937,MG,ARICANDUVA,3975,MG_ARICANDUVA
376,376.0,3104502.0,Arinos,31.0,MG,Minas Gerais,-15.9187,-46.1043,ARINOS,MG_ARINOS,MG_ARINOS,2938,MG,ARINOS,19053,MG_ARINOS
377,377.0,5101407.0,Aripuanã,51.0,MT,Mato Grosso,-10.1723,-59.4568,ARIPUANA,MT_ARIPUANA,MT_ARIPUANA,4500,MT,ARIPUANA,19075,MT_ARIPUANA
378,378.0,1100023.0,Ariquemes,11.0,RO,Rondônia,-9.90571,-63.0325,ARIQUEMES,RO_ARIQUEMES,RO_ARIQUEMES,7325,RO,ARIQUEMES,87265,RO_ARIQUEMES
379,379.0,3503703.0,Ariranha,35.0,SP,São Paulo,-21.1872,-48.7904,ARIRANHA,SP_ARIRANHA,SP_ARIRANHA,8868,SP,ARIRANHA,10506,SP_ARIRANHA
380,380.0,4101853.0,Ariranha do Ivaí,41.0,PR,Paraná,-24.3857,-51.5839,ARIRANHA DO IVAI,PR_ARIRANHA DO IVAI,PR_ARIRANHA DO IVAI,6019,PR,ARIRANHA DO IVAI,2317,PR_ARIRANHA DO IVAI
381,381.0,3300233.0,Armação dos Búzios,33.0,RJ,Rio de Janeiro,-22.7528,-41.8846,ARMACAO DOS BUZIOS,RJ_ARMACAO DOS BUZIOS,RJ_ARMACAO DOS BUZIOS,6888,RJ,ARMACAO DOS BUZIOS,39583,RJ_ARMACAO DOS BUZIOS
382,382.0,4201505.0,Armazém,42.0,SC,Santa Catarina,-28.2448,-49.0215,ARMAZEM,SC_ARMAZEM,SC_ARMAZEM,8313,SC,ARMAZEM,9357,SC_ARMAZEM
383,383.0,2301505.0,Arneiroz,23.0,CE,Ceará,-6.3165,-40.1653,ARNEIROZ,CE_ARNEIROZ,CE_ARNEIROZ,1214,CE,ARNEIROZ,7377,CE_ARNEIROZ
384,384.0,2200905.0,Aroazes,22.0,PI,Piauí,-6.11022,-41.7822,AROAZES,PI_AROAZES,PI_AROAZES,5744,PI,AROAZES,5667,PI_AROAZES
385,385.0,2501302.0,Aroeiras,25.0,PB,Paraíba,-7.54473,-35.7066,AROEIRAS,PB_AROEIRAS,PB_AROEIRAS,5037,PB,AROEIRAS,21687,PB_AROEIRAS
386,386.0,2201002.0,Arraial,22.0,PI,Piauí,-6.65075,-42.5418,ARRAIAL,PI_ARRAIAL,PI_ARRAIAL,5746,PI,ARRAIAL,4835,PI_ARRAIAL
387,387.0,3300258.0,Arraial do Cabo,33.0,RJ,Rio de Janeiro,-22.9774,-42.0267,ARRAIAL DO CABO,RJ_ARRAIAL DO CABO,RJ_ARRAIAL DO CABO,6889,RJ,ARRAIAL DO CABO,29032,RJ_ARRAIAL DO CABO
388,388.0,1702406.0,Arraias,17.0,TO,Tocantins,-12.9287,-46.9359,ARRAIAS,TO_ARRAIAS,TO_ARRAIAS,9698,TO,ARRAIAS,12005,TO_ARRAIAS
389,389.0,4301008.0,Arroio do Meio,43.0,RS,Rio Grande do Sul,-29.4014,-51.9557,ARROIO DO MEIO,RS_ARROIO DO MEIO,RS_ARROIO DO MEIO,7464,RS,ARROIO DO MEIO,24678,RS_ARROIO DO MEIO
390,390.0,4301073.0,Arroio do Padre,43.0,RS,Rio Grande do Sul,-31.4389,-52.4246,ARROIO DO PADRE,RS_ARROIO DO PADRE,RS_ARROIO DO PADRE,7466,RS,ARROIO DO PADRE,1320,RS_ARROIO DO PADRE
391,391.0,4301057.0,Arroio do Sal,43.0,RS,Rio Grande do Sul,-29.5439,-49.8895,ARROIO DO SAL,RS_ARROIO DO SAL,RS_ARROIO DO SAL,7467,RS,ARROIO DO SAL,7926,RS_ARROIO DO SAL
392,392.0,4301206.0,Arroio do Tigre,43.0,RS,Rio Grande do Sul,-29.3348,-53.0966,ARROIO DO TIGRE,RS_ARROIO DO TIGRE,RS_ARROIO DO TIGRE,7469,RS,ARROIO DO TIGRE,17028,RS_ARROIO DO TIGRE
393,393.0,4301107.0,Arroio dos Ratos,43.0,RS,Rio Grande do Sul,-30.0875,-51.7275,ARROIO DOS RATOS,RS_ARROIO DOS RATOS,RS_ARROIO DOS RATOS,7470,RS,ARROIO DOS RATOS,16259,RS_ARROIO DOS RATOS
394,394.0,4301305.0,Arroio Grande,43.0,RS,Rio Grande do Sul,-32.2327,-53.0862,ARROIO GRANDE,RS_ARROIO GRANDE,RS_ARROIO GRANDE,7471,RS,ARROIO GRANDE,22193,RS_ARROIO GRANDE
395,395.0,4201604.0,Arroio Trinta,42.0,SC,Santa Catarina,-26.9257,-51.3407,ARROIO TRINTA,SC_ARROIO TRINTA,SC_ARROIO TRINTA,8314,SC,ARROIO TRINTA,4251,SC_ARROIO TRINTA
396,396.0,3503802.0,Artur Nogueira,35.0,SP,São Paulo,-22.5727,-47.1727,ARTUR NOGUEIRA,SP_ARTUR NOGUEIRA,SP_ARTUR NOGUEIRA,8870,SP,ARTUR NOGUEIRA,52775,SP_ARTUR NOGUEIRA
397,397.0,5202502.0,Aruanã,52.0,GO,Goiás,-14.9166,-51.075,ARUANA,GO_ARUANA,GO_ARUANA,2299,GO,ARUANA,5966,GO_ARUANA
398,398.0,3503901.0,Arujá,35.0,SP,São Paulo,-23.3965,-46.32,ARUJA,SP_ARUJA,SP_ARUJA,8871,SP,ARUJA,78918,SP_ARUJA
399,399.0,4201653.0,Arvoredo,42.0,SC,Santa Catarina,-27.0748,-52.4543,ARVOREDO,SC_ARVOREDO,SC_ARVOREDO,8315,SC,ARVOREDO,2242,SC_ARVOREDO
400,400.0,4301404.0,Arvorezinha,43.0,RS,Rio Grande do Sul,-28.8737,-52.1781,ARVOREZINHA,RS_ARVOREZINHA,RS_ARVOREZINHA,7474,RS,ARVOREZINHA,14638,RS_ARVOREZINHA
401,401.0,4201703.0,Ascurra,42.0,SC,Santa Catarina,-26.9548,-49.3783,ASCURRA,SC_ASCURRA,SC_ASCURRA,8316,SC,ASCURRA,9102,SC_ASCURRA
402,402.0,3503950.0,Aspásia,35.0,SP,São Paulo,-20.16,-50.728,ASPASIA,SP_ASPASIA,SP_ASPASIA,8872,SP,ASPASIA,1878,SP_ASPASIA
403,403.0,4101903.0,Assaí,41.0,PR,Paraná,-23.3697,-50.8459,ASSAI,PR_ASSAI,PR_ASSAI,6020,PR,ASSAI,23486,PR_ASSAI
404,404.0,2301604.0,Assaré,23.0,CE,Ceará,-6.8669,-39.8689,ASSARE,CE_ASSARE,CE_ASSARE,1218,CE,ASSARE,23397,CE_ASSARE
405,405.0,3504008.0,Assis,35.0,SP,São Paulo,-22.66,-50.4183,ASSIS,SP_ASSIS,SP_ASSIS,8873,SP,ASSIS,113575,SP_ASSIS
406,406.0,1200054.0,Assis Brasil,12.0,AC,Acre,-10.9298,-69.5738,ASSIS BRASIL,AC_ASSIS BRASIL,AC_ASSIS BRASIL,1,AC,ASSIS BRASIL,7543,AC_ASSIS BRASIL
407,407.0,4102000.0,Assis Chateaubriand,41.0,PR,Paraná,-24.4168,-53.5213,ASSIS CHATEAUBRIAND,PR_ASSIS CHATEAUBRIAND,PR_ASSIS CHATEAUBRIAND,6021,PR,ASSIS CHATEAUBRIAND,45098,PR_ASSIS CHATEAUBRIAND
408,408.0,2501351.0,Assunção,25.0,PB,Paraíba,-7.072310000000001,-36.725,ASSUNCAO,PB_ASSUNCAO,PB_ASSUNCAO,5038,PB,ASSUNCAO,3003,PB_ASSUNCAO
409,409.0,2201051.0,Assunção do Piauí,22.0,PI,Piauí,-5.865,-41.0389,ASSUNCAO DO PIAUI,PI_ASSUNCAO DO PIAUI,PI_ASSUNCAO DO PIAUI,5747,PI,ASSUNCAO DO PIAUI,6296,PI_ASSUNCAO DO PIAUI
410,410.0,3104601.0,Astolfo Dutra,31.0,MG,Minas Gerais,-21.3184,-42.8572,ASTOLFO DUTRA,MG_ASTOLFO DUTRA,MG_ASTOLFO DUTRA,2942,MG,ASTOLFO DUTRA,14971,MG_ASTOLFO DUTRA
411,411.0,4102109.0,Astorga,41.0,PR,Paraná,-23.2318,-51.6668,ASTORGA,PR_ASTORGA,PR_ASTORGA,6022,PR,ASTORGA,29779,PR_ASTORGA
412,412.0,2700409.0,Atalaia,27.0,AL,Alagoas,-9.5119,-36.0086,ATALAIA,AL_ATALAIA,AL_ATALAIA,30,AL,ATALAIA,46246,AL_ATALAIA
413,413.0,4102208.0,Atalaia,41.0,PR,Paraná,-23.1517,-52.0551,ATALAIA,PR_ATALAIA,PR_ATALAIA,6023,PR,ATALAIA,5076,PR_ATALAIA
414,414.0,1300201.0,Atalaia do Norte,13.0,AM,Amazonas,-4.37055,-70.1967,ATALAIA DO NORTE,AM_ATALAIA DO NORTE,AM_ATALAIA DO NORTE,201,AM,ATALAIA DO NORTE,8044,AM_ATALAIA DO NORTE
415,415.0,4201802.0,Atalanta,42.0,SC,Santa Catarina,-27.4219,-49.7789,ATALANTA,SC_ATALANTA,SC_ATALANTA,8317,SC,ATALANTA,4197,SC_ATALANTA
416,416.0,3104700.0,Ataléia,31.0,MG,Minas Gerais,-18.0438,-41.1149,ATALEIA,MG_ATALEIA,MG_ATALEIA,2943,MG,ATALEIA,15085,MG_ATALEIA
417,417.0,3504107.0,Atibaia,35.0,SP,São Paulo,-23.1171,-46.5563,ATIBAIA,SP_ATIBAIA,SP_ATIBAIA,8875,SP,ATIBAIA,164741,SP_ATIBAIA
418,418.0,3200706.0,Atilio Vivacqua,32.0,ES,Espírito Santo,-20.913,-41.1986,ATILIO VIVACQUA,ES_ATILIO VIVACQUA,ES_ATILIO VIVACQUA,1834,ES,ATILIO VIVACQUA,11193,ES_ATILIO VIVACQUA
419,419.0,1702554.0,Augustinópolis,17.0,TO,Tocantins,-5.46863,-47.8863,AUGUSTINOPOLIS,TO_AUGUSTINOPOLIS,TO_AUGUSTINOPOLIS,9699,TO,AUGUSTINOPOLIS,15560,TO_AUGUSTINOPOLIS
420,420.0,3104809.0,Augusto de Lima,31.0,MG,Minas Gerais,-18.0997,-44.2655,AUGUSTO DE LIMA,MG_AUGUSTO DE LIMA,MG_AUGUSTO DE LIMA,2944,MG,AUGUSTO DE LIMA,4813,MG_AUGUSTO DE LIMA
421,421.0,4301503.0,Augusto Pestana,43.0,RS,Rio Grande do Sul,-28.5172,-53.9883,AUGUSTO PESTANA,RS_AUGUSTO PESTANA,RS_AUGUSTO PESTANA,7478,RS,AUGUSTO PESTANA,9922,RS_AUGUSTO PESTANA
422,422.0,4301552.0,Áurea,43.0,RS,Rio Grande do Sul,-27.6936,-52.0505,AUREA,RS_AUREA,RS_AUREA,7479,RS,AUREA,4455,RS_AUREA
423,423.0,2902401.0,Aurelino Leal,29.0,BA,Bahia,-14.321,-39.329,AURELINO LEAL,BA_AURELINO LEAL,BA_AURELINO LEAL,395,BA,AURELINO LEAL,13512,BA_AURELINO LEAL
424,424.0,3504206.0,Auriflama,35.0,SP,São Paulo,-20.6836,-50.5572,AURIFLAMA,SP_AURIFLAMA,SP_AURIFLAMA,8877,SP,AURIFLAMA,17860,SP_AURIFLAMA
425,425.0,5202601.0,Aurilândia,52.0,GO,Goiás,-16.6773,-50.4641,AURILANDIA,GO_AURILANDIA,GO_AURILANDIA,2300,GO,AURILANDIA,4234,GO_AURILANDIA
426,426.0,2301703.0,Aurora,23.0,CE,Ceará,-6.933489999999999,-38.9742,AURORA,CE_AURORA,CE_AURORA,1221,CE,AURORA,26040,CE_AURORA
427,427.0,4201901.0,Aurora,42.0,SC,Santa Catarina,-27.3098,-49.6295,AURORA,SC_AURORA,SC_AURORA,8319,SC,AURORA,6699,SC_AURORA
428,428.0,1500958.0,Aurora do Pará,15.0,PA,Pará,-2.14898,-47.5677,AURORA DO PARA,PA_AURORA DO PARA,PA_AURORA DO PARA,4752,PA,AURORA DO PARA,16409,PA_AURORA DO PARA
429,429.0,1702703.0,Aurora do Tocantins,17.0,TO,Tocantins,-12.7105,-46.4076,AURORA DO TOCANTINS,TO_AURORA DO TOCANTINS,TO_AURORA DO TOCANTINS,9700,TO,AURORA DO TOCANTINS,3004,TO_AURORA DO TOCANTINS
430,430.0,1300300.0,Autazes,13.0,AM,Amazonas,-3.58574,-59.1256,AUTAZES,AM_AUTAZES,AM_AUTAZES,203,AM,AUTAZES,27742,AM_AUTAZES
431,431.0,3504305.0,Avaí,35.0,SP,São Paulo,-22.1514,-49.3356,AVAI,SP_AVAI,SP_AVAI,8878,SP,AVAI,5054,SP_AVAI
432,432.0,3504404.0,Avanhandava,35.0,SP,São Paulo,-21.4584,-49.9509,AVANHANDAVA,SP_AVANHANDAVA,SP_AVANHANDAVA,8879,SP,AVANHANDAVA,11930,SP_AVANHANDAVA
433,433.0,3504503.0,Avaré,35.0,SP,São Paulo,-23.1067,-48.9251,AVARE,SP_AVARE,SP_AVARE,8880,SP,AVARE,106573,SP_AVARE
434,434.0,1501006.0,Aveiro,15.0,PA,Pará,-3.60841,-55.3199,AVEIRO,PA_AVEIRO,PA_AVEIRO,4753,PA,AVEIRO,12998,PA_AVEIRO
435,435.0,2201101.0,Avelino Lopes,22.0,PI,Piauí,-10.1345,-43.9563,AVELINO LOPES,PI_AVELINO LOPES,PI_AVELINO LOPES,5748,PI,AVELINO LOPES,10732,PI_AVELINO LOPES
436,436.0,5202809.0,Avelinópolis,52.0,GO,Goiás,-16.4672,-49.7579,AVELINOPOLIS,GO_AVELINOPOLIS,GO_AVELINOPOLIS,2302,GO,AVELINOPOLIS,2760,GO_AVELINOPOLIS
437,437.0,2101103.0,Axixá,21.0,MA,Maranhão,-2.8393900000000003,-44.062,AXIXA,MA_AXIXA,MA_AXIXA,2618,MA,AXIXA,9328,MA_AXIXA
438,438.0,1702901.0,Axixá do Tocantins,17.0,TO,Tocantins,-5.61275,-47.7701,AXIXA DO TOCANTINS,TO_AXIXA DO TOCANTINS,TO_AXIXA DO TOCANTINS,9701,TO,AXIXA DO TOCANTINS,13148,TO_AXIXA DO TOCANTINS
439,439.0,1703008.0,Babaçulândia,17.0,TO,Tocantins,-7.209230000000002,-47.7613,BABACULANDIA,TO_BABACULANDIA,TO_BABACULANDIA,9702,TO,BABACULANDIA,11273,TO_BABACULANDIA
440,440.0,2101202.0,Bacabal,21.0,MA,Maranhão,-4.224469999999998,-44.7832,BACABAL,MA_BACABAL,MA_BACABAL,2619,MA,BACABAL,102234,MA_BACABAL
441,441.0,2101251.0,Bacabeira,21.0,MA,Maranhão,-2.9645200000000003,-44.3164,BACABEIRA,MA_BACABEIRA,MA_BACABEIRA,2620,MA,BACABEIRA,11211,MA_BACABEIRA
442,442.0,2101301.0,Bacuri,21.0,MA,Maranhão,-1.6965,-45.1328,BACURI,MA_BACURI,MA_BACURI,2621,MA,BACURI,13812,MA_BACURI
443,443.0,2101350.0,Bacurituba,21.0,MA,Maranhão,-2.71,-44.7329,BACURITUBA,MA_BACURITUBA,MA_BACURITUBA,2622,MA,BACURITUBA,4816,MA_BACURITUBA
444,444.0,3504602.0,Bady Bassitt,35.0,SP,São Paulo,-20.9197,-49.4385,BADY BASSITT,SP_BADY BASSITT,SP_BADY BASSITT,8883,SP,BADY BASSITT,17277,SP_BADY BASSITT
445,445.0,3104908.0,Baependi,31.0,MG,Minas Gerais,-21.957,-44.8874,BAEPENDI,MG_BAEPENDI,MG_BAEPENDI,2949,MG,BAEPENDI,23685,MG_BAEPENDI
446,446.0,4301602.0,Bagé,43.0,RS,Rio Grande do Sul,-31.3297,-54.0999,BAGE,RS_BAGE,RS_BAGE,7481,RS,BAGE,143692,RS_BAGE
447,447.0,1501105.0,Bagre,15.0,PA,Pará,-1.90057,-50.1987,BAGRE,PA_BAGRE,PA_BAGRE,4754,PA,BAGRE,11606,PA_BAGRE
448,448.0,2501401.0,Baía da Traição,25.0,PB,Paraíba,-6.6920899999999985,-34.9381,BAIA DA TRAICAO,PB_BAIA DA TRAICAO,PB_BAIA DA TRAICAO,5039,PB,BAIA DA TRAICAO,7535,PB_BAIA DA TRAICAO
449,449.0,2401404.0,Baía Formosa,24.0,RN,Rio Grande do Norte,-6.37161,-35.0033,BAIA FORMOSA,RN_BAIA FORMOSA,RN_BAIA FORMOSA,7139,RN,BAIA FORMOSA,9157,RN_BAIA FORMOSA
450,450.0,2902500.0,Baianópolis,29.0,BA,Bahia,-12.3016,-44.5388,BAIANOPOLIS,BA_BAIANOPOLIS,BA_BAIANOPOLIS,396,BA,BAIANOPOLIS,12935,BA_BAIANOPOLIS
451,451.0,1501204.0,Baião,15.0,PA,Pará,-2.79021,-49.6694,BAIAO,PA_BAIAO,PA_BAIAO,4755,PA,BAIAO,21932,PA_BAIAO
452,452.0,2902609.0,Baixa Grande,29.0,BA,Bahia,-11.9519,-40.169,BAIXA GRANDE,BA_BAIXA GRANDE,BA_BAIXA GRANDE,398,BA,BAIXA GRANDE,20944,BA_BAIXA GRANDE
453,453.0,2201150.0,Baixa Grande do Ribeiro,22.0,PI,Piauí,-7.84903,-45.219,BAIXA GRANDE DO RIBEIRO,PI_BAIXA GRANDE DO RIBEIRO,PI_BAIXA GRANDE DO RIBEIRO,5749,PI,BAIXA GRANDE DO RIBEIRO,7746,PI_BAIXA GRANDE DO RIBEIRO
454,454.0,2301802.0,Baixio,23.0,CE,Ceará,-6.71945,-38.7134,BAIXIO,CE_BAIXIO,CE_BAIXIO,1223,CE,BAIXIO,5618,CE_BAIXIO
455,455.0,3200805.0,Baixo Guandu,32.0,ES,Espírito Santo,-19.5213,-41.0109,BAIXO GUANDU,ES_BAIXO GUANDU,ES_BAIXO GUANDU,1835,ES,BAIXO GUANDU,35879,ES_BAIXO GUANDU
456,456.0,3504701.0,Balbinos,35.0,SP,São Paulo,-21.8963,-49.3619,BALBINOS,SP_BALBINOS,SP_BALBINOS,8886,SP,BALBINOS,2315,SP_BALBINOS
457,457.0,3105004.0,Baldim,31.0,MG,Minas Gerais,-19.2832,-43.9613,BALDIM,MG_BALDIM,MG_BALDIM,2954,MG,BALDIM,4635,MG_BALDIM
458,458.0,5203104.0,Baliza,52.0,GO,Goiás,-16.1966,-52.5393,BALIZA,GO_BALIZA,GO_BALIZA,2304,GO,BALIZA,2329,GO_BALIZA
459,459.0,4201950.0,Balneário Arroio do Silva,42.0,SC,Santa Catarina,-28.9806,-49.4237,BALNEARIO ARROIO DO SILVA,SC_BALNEARIO ARROIO DO SILVA,SC_BALNEARIO ARROIO DO SILVA,8322,SC,BALNEARIO ARROIO DO SILVA,10217,SC_BALNEARIO ARROIO DO SILVA
460,460.0,4202057.0,Balneário Barra do Sul,42.0,SC,Santa Catarina,-26.4597,-48.6123,BALNEARIO BARRA DO SUL,SC_BALNEARIO BARRA DO SUL,SC_BALNEARIO BARRA DO SUL,8323,SC,BALNEARIO BARRA DO SUL,8791,SC_BALNEARIO BARRA DO SUL
461,461.0,4202008.0,Balneário Camboriú,42.0,SC,Santa Catarina,-26.9926,-48.6352,BALNEARIO CAMBORIU,SC_BALNEARIO CAMBORIU,SC_BALNEARIO CAMBORIU,8324,SC,BALNEARIO CAMBORIU,134182,SC_BALNEARIO CAMBORIU
462,462.0,4202073.0,Balneário Gaivota,42.0,SC,Santa Catarina,-29.1527,-49.5841,BALNEARIO GAIVOTA,SC_BALNEARIO GAIVOTA,SC_BALNEARIO GAIVOTA,8326,SC,BALNEARIO GAIVOTA,8861,SC_BALNEARIO GAIVOTA
463,463.0,4301636.0,Balneário Pinhal,43.0,RS,Rio Grande do Sul,-30.2419,-50.2337,BALNEARIO PINHAL,RS_BALNEARIO PINHAL,RS_BALNEARIO PINHAL,7483,RS,BALNEARIO PINHAL,8933,RS_BALNEARIO PINHAL
464,464.0,4102307.0,Balsa Nova,41.0,PR,Paraná,-25.5804,-49.6291,BALSA NOVA,PR_BALSA NOVA,PR_BALSA NOVA,6027,PR,BALSA NOVA,11543,PR_BALSA NOVA
465,465.0,3504800.0,Bálsamo,35.0,SP,São Paulo,-20.7348,-49.5865,BALSAMO,SP_BALSAMO,SP_BALSAMO,8887,SP,BALSAMO,10142,SP_BALSAMO
466,466.0,2101400.0,Balsas,21.0,MA,Maranhão,-7.532139999999999,-46.0372,BALSAS,MA_BALSAS,MA_BALSAS,2623,MA,BALSAS,87597,MA_BALSAS
467,467.0,3105103.0,Bambuí,31.0,MG,Minas Gerais,-20.0166,-45.9754,BAMBUI,MG_BAMBUI,MG_BAMBUI,2955,MG,BAMBUI,29862,MG_BAMBUI
468,468.0,2301851.0,Banabuiú,23.0,CE,Ceará,-5.30454,-38.9132,BANABUIU,CE_BANABUIU,CE_BANABUIU,1226,CE,BANABUIU,16112,CE_BANABUIU
469,469.0,3504909.0,Bananal,35.0,SP,São Paulo,-22.6819,-44.3281,BANANAL,SP_BANANAL,SP_BANANAL,8888,SP,BANANAL,13458,SP_BANANAL
470,470.0,2501500.0,Bananeiras,25.0,PB,Paraíba,-6.74775,-35.6246,BANANEIRAS,PB_BANANEIRAS,PB_BANANEIRAS,5041,PB,BANANEIRAS,22879,PB_BANANEIRAS
471,471.0,3105202.0,Bandeira,31.0,MG,Minas Gerais,-15.8783,-40.5622,BANDEIRA,MG_BANDEIRA,MG_BANDEIRA,2956,MG,BANDEIRA,4829,MG_BANDEIRA
472,472.0,3105301.0,Bandeira do Sul,31.0,MG,Minas Gerais,-21.7308,-46.3833,BANDEIRA DO SUL,MG_BANDEIRA DO SUL,MG_BANDEIRA DO SUL,2957,MG,BANDEIRA DO SUL,6822,MG_BANDEIRA DO SUL
473,473.0,4202081.0,Bandeirante,42.0,SC,Santa Catarina,-26.7705,-53.6413,BANDEIRANTE,SC_BANDEIRANTE,SC_BANDEIRANTE,8329,SC,BANDEIRANTE,2744,SC_BANDEIRANTE
474,474.0,5001508.0,Bandeirantes,50.0,MS,Mato Grosso do Sul,-19.9275,-54.3585,BANDEIRANTES,MS_BANDEIRANTES,MS_BANDEIRANTES,4354,MS,BANDEIRANTES,7989,MS_BANDEIRANTES
475,475.0,4102406.0,Bandeirantes,41.0,PR,Paraná,-23.1078,-50.3704,BANDEIRANTES,PR_BANDEIRANTES,PR_BANDEIRANTES,6028,PR,BANDEIRANTES,40170,PR_BANDEIRANTES
476,476.0,1703057.0,Bandeirantes do Tocantins,17.0,TO,Tocantins,-7.75612,-48.5836,BANDEIRANTES DO TOCANTINS,TO_BANDEIRANTES DO TOCANTINS,TO_BANDEIRANTES DO TOCANTINS,9703,TO,BANDEIRANTES DO TOCANTINS,2318,TO_BANDEIRANTES DO TOCANTINS
477,477.0,1501253.0,Bannach,15.0,PA,Pará,-7.34779,-50.3959,BANNACH,PA_BANNACH,PA_BANNACH,4756,PA,BANNACH,2962,PA_BANNACH
478,478.0,2902658.0,Banzaê,29.0,BA,Bahia,-10.5788,-38.6212,BANZAE,BA_BANZAE,BA_BANZAE,406,BA,BANZAE,10297,BA_BANZAE
479,479.0,4301651.0,Barão,43.0,RS,Rio Grande do Sul,-29.3725,-51.4949,BARAO,RS_BARAO,RS_BARAO,7485,RS,BARAO,5884,RS_BARAO
480,480.0,3505005.0,Barão de Antonina,35.0,SP,São Paulo,-23.6284,-49.5634,BARAO DE ANTONINA,SP_BARAO DE ANTONINA,SP_BARAO DE ANTONINA,8891,SP,BARAO DE ANTONINA,3618,SP_BARAO DE ANTONINA
481,481.0,3105400.0,Barão de Cocais,31.0,MG,Minas Gerais,-19.9389,-43.4755,BARAO DE COCAIS,MG_BARAO DE COCAIS,MG_BARAO DE COCAIS,2959,MG,BARAO DE COCAIS,31987,MG_BARAO DE COCAIS
482,482.0,4301701.0,Barão de Cotegipe,43.0,RS,Rio Grande do Sul,-27.6208,-52.3798,BARAO DE COTEGIPE,RS_BARAO DE COTEGIPE,RS_BARAO DE COTEGIPE,7486,RS,BARAO DE COTEGIPE,8788,RS_BARAO DE COTEGIPE
483,483.0,2101509.0,Barão de Grajaú,21.0,MA,Maranhão,-6.74463,-43.0261,BARAO DE GRAJAU,MA_BARAO DE GRAJAU,MA_BARAO DE GRAJAU,2624,MA,BARAO DE GRAJAU,15640,MA_BARAO DE GRAJAU
484,484.0,5101605.0,Barão de Melgaço,51.0,MT,Mato Grosso,-16.2067,-55.9623,BARAO DE MELGACO,MT_BARAO DE MELGACO,MT_BARAO DE MELGACO,4503,MT,BARAO DE MELGACO,5925,MT_BARAO DE MELGACO
485,485.0,3105509.0,Barão de Monte Alto,31.0,MG,Minas Gerais,-21.2444,-42.2372,BARAO DE MONTE ALTO,MG_BARAO DE MONTE ALTO,MG_BARAO DE MONTE ALTO,2960,MG,BARAO DE MONTE ALTO,3408,MG_BARAO DE MONTE ALTO
486,486.0,4301750.0,Barão do Triunfo,43.0,RS,Rio Grande do Sul,-30.3891,-51.7384,BARAO DO TRIUNFO,RS_BARAO DO TRIUNFO,RS_BARAO DO TRIUNFO,7487,RS,BARAO DO TRIUNFO,5503,RS_BARAO DO TRIUNFO
487,487.0,2401453.0,Baraúna,24.0,RN,Rio Grande do Norte,-5.06977,-37.6129,BARAUNA,RN_BARAUNA,RN_BARAUNA,7141,RN,BARAUNA,21950,RN_BARAUNA
488,488.0,2501534.0,Baraúna,25.0,PB,Paraíba,-6.63484,-36.2601,BARAUNA,PB_BARAUNA,PB_BARAUNA,5042,PB,BARAUNA,3998,PB_BARAUNA
489,489.0,3105608.0,Barbacena,31.0,MG,Minas Gerais,-21.2214,-43.7703,BARBACENA,MG_BARBACENA,MG_BARBACENA,2962,MG,BARBACENA,136918,MG_BARBACENA
490,490.0,2301901.0,Barbalha,23.0,CE,Ceará,-7.2982,-39.3021,BARBALHA,CE_BARBALHA,CE_BARBALHA,1230,CE,BARBALHA,56937,CE_BARBALHA
491,491.0,3505104.0,Barbosa,35.0,SP,São Paulo,-21.2657,-49.9518,BARBOSA,SP_BARBOSA,SP_BARBOSA,8892,SP,BARBOSA,7765,SP_BARBOSA
492,492.0,4102505.0,Barbosa Ferraz,41.0,PR,Paraná,-24.0334,-52.004,BARBOSA FERRAZ,PR_BARBOSA FERRAZ,PR_BARBOSA FERRAZ,6032,PR,BARBOSA FERRAZ,16896,PR_BARBOSA FERRAZ
493,493.0,1501303.0,Barcarena,15.0,PA,Pará,-1.51187,-48.6195,BARCARENA,PA_BARCARENA,PA_BARCARENA,4757,PA,BARCARENA,86796,PA_BARCARENA
494,494.0,2401503.0,Barcelona,24.0,RN,Rio Grande do Norte,-5.94284,-35.9247,BARCELONA,RN_BARCELONA,RN_BARCELONA,7142,RN,BARCELONA,4533,RN_BARCELONA
495,495.0,1300409.0,Barcelos,13.0,AM,Amazonas,-0.983373,-62.9311,BARCELOS,AM_BARCELOS,AM_BARCELOS,207,AM,BARCELOS,10998,AM_BARCELOS
496,496.0,3505203.0,Bariri,35.0,SP,São Paulo,-22.073,-48.7438,BARIRI,SP_BARIRI,SP_BARIRI,8893,SP,BARIRI,37301,SP_BARIRI
497,497.0,2902708.0,Barra,29.0,BA,Bahia,-11.0859,-43.1459,BARRA,BA_BARRA,BA_BARRA,409,BA,BARRA,39756,BA_BARRA
498,498.0,3505302.0,Barra Bonita,35.0,SP,São Paulo,-22.4909,-48.5583,BARRA BONITA,SP_BARRA BONITA,SP_BARRA BONITA,8894,SP,BARRA BONITA,42014,SP_BARRA BONITA
499,499.0,4202099.0,Barra Bonita,42.0,SC,Santa Catarina,-26.654,-53.44,BARRA BONITA,SC_BARRA BONITA,SC_BARRA BONITA,8330,SC,BARRA BONITA,1630,SC_BARRA BONITA
500,500.0,2201176.0,Barra D'Alcântara,22.0,PI,Piauí,-6.51645,-42.1146,BARRA D'ALCANTARA,PI_BARRA D'ALCANTARA,PI_BARRA D ALCANTARA,5750,PI,BARRA D ALCANTARA,3189,PI_BARRA D ALCANTARA
501,501.0,2902807.0,Barra da Estiva,29.0,BA,Bahia,-13.6237,-41.3347,BARRA DA ESTIVA,BA_BARRA DA ESTIVA,BA_BARRA DA ESTIVA,411,BA,BARRA DA ESTIVA,21677,BA_BARRA DA ESTIVA
502,502.0,2601300.0,Barra de Guabiraba,26.0,PE,Pernambuco,-8.42075,-35.6585,BARRA DE GUABIRABA,PE_BARRA DE GUABIRABA,PE_BARRA DE GUABIRABA,5332,PE,BARRA DE GUABIRABA,11833,PE_BARRA DE GUABIRABA
503,503.0,2501609.0,Barra de Santa Rosa,25.0,PB,Paraíba,-6.718160000000001,-36.0671,BARRA DE SANTA ROSA,PB_BARRA DE SANTA ROSA,PB_BARRA DE SANTA ROSA,5043,PB,BARRA DE SANTA ROSA,15422,PB_BARRA DE SANTA ROSA
504,504.0,2501575.0,Barra de Santana,25.0,PB,Paraíba,-7.518089999999999,-35.9913,BARRA DE SANTANA,PB_BARRA DE SANTANA,PB_BARRA DE SANTANA,5044,PB,BARRA DE SANTANA,6338,PB_BARRA DE SANTANA
505,505.0,2700508.0,Barra de Santo Antônio,27.0,AL,Alagoas,-9.4023,-35.5101,BARRA DE SANTO ANTONIO,AL_BARRA DE SANTO ANTONIO,AL_BARRA DE SANTO ANTONIO,35,AL,BARRA DE SANTO ANTONIO,15053,AL_BARRA DE SANTO ANTONIO
506,506.0,3200904.0,Barra de São Francisco,32.0,ES,Espírito Santo,-18.7548,-40.8965,BARRA DE SAO FRANCISCO,ES_BARRA DE SAO FRANCISCO,ES_BARRA DE SAO FRANCISCO,1837,ES,BARRA DE SAO FRANCISCO,58691,ES_BARRA DE SAO FRANCISCO
507,507.0,2700607.0,Barra de São Miguel,27.0,AL,Alagoas,-9.83842,-35.9057,BARRA DE SAO MIGUEL,AL_BARRA DE SAO MIGUEL,AL_BARRA DE SAO MIGUEL,36,AL,BARRA DE SAO MIGUEL,8795,AL_BARRA DE SAO MIGUEL
508,508.0,2501708.0,Barra de São Miguel,25.0,PB,Paraíba,-7.74603,-36.3209,BARRA DE SAO MIGUEL,PB_BARRA DE SAO MIGUEL,PB_BARRA DE SAO MIGUEL,5045,PB,BARRA DE SAO MIGUEL,5354,PB_BARRA DE SAO MIGUEL
509,509.0,5101704.0,Barra do Bugres,51.0,MT,Mato Grosso,-15.0702,-57.1878,BARRA DO BUGRES,MT_BARRA DO BUGRES,MT_BARRA DO BUGRES,4504,MT,BARRA DO BUGRES,42355,MT_BARRA DO BUGRES
510,510.0,3505351.0,Barra do Chapéu,35.0,SP,São Paulo,-24.4722,-49.0238,BARRA DO CHAPEU,SP_BARRA DO CHAPEU,SP_BARRA DO CHAPEU,8895,SP,BARRA DO CHAPEU,5032,SP_BARRA DO CHAPEU
511,511.0,2902906.0,Barra do Choça,29.0,BA,Bahia,-14.8654,-40.5791,BARRA DO CHOCA,BA_BARRA DO CHOCA,BA_BARRA DO CHOCA,413,BA,BARRA DO CHOCA,28446,BA_BARRA DO CHOCA
512,512.0,2101608.0,Barra do Corda,21.0,MA,Maranhão,-5.49682,-45.2485,BARRA DO CORDA,MA_BARRA DO CORDA,MA_BARRA DO CORDA,2626,MA,BARRA DO CORDA,85373,MA_BARRA DO CORDA
513,513.0,5101803.0,Barra do Garças,51.0,MT,Mato Grosso,-15.8804,-52.264,BARRA DO GARCAS,MT_BARRA DO GARCAS,MT_BARRA DO GARCAS,4505,MT,BARRA DO GARCAS,76739,MT_BARRA DO GARCAS
514,514.0,4301859.0,Barra do Guarita,43.0,RS,Rio Grande do Sul,-27.1927,-53.7109,BARRA DO GUARITA,RS_BARRA DO GUARITA,RS_BARRA DO GUARITA,7488,RS,BARRA DO GUARITA,2905,RS_BARRA DO GUARITA
515,515.0,4102703.0,Barra do Jacaré,41.0,PR,Paraná,-23.116,-50.1842,BARRA DO JACARE,PR_BARRA DO JACARE,PR_BARRA DO JACARE,6034,PR,BARRA DO JACARE,3115,PR_BARRA DO JACARE
516,516.0,2903003.0,Barra do Mendes,29.0,BA,Bahia,-11.81,-42.059,BARRA DO MENDES,BA_BARRA DO MENDES,BA_BARRA DO MENDES,415,BA,BARRA DO MENDES,15012,BA_BARRA DO MENDES
517,517.0,1703073.0,Barra do Ouro,17.0,TO,Tocantins,-7.6959300000000015,-47.6776,BARRA DO OURO,TO_BARRA DO OURO,TO_BARRA DO OURO,9705,TO,BARRA DO OURO,3117,TO_BARRA DO OURO
518,518.0,3300308.0,Barra do Piraí,33.0,RJ,Rio de Janeiro,-22.4715,-43.8269,BARRA DO PIRAI,RJ_BARRA DO PIRAI,RJ_BARRA DO PIRAI,6900,RJ,BARRA DO PIRAI,105820,RJ_BARRA DO PIRAI
519,519.0,4301875.0,Barra do Quaraí,43.0,RS,Rio Grande do Sul,-30.2029,-57.5497,BARRA DO QUARAI,RS_BARRA DO QUARAI,RS_BARRA DO QUARAI,7490,RS,BARRA DO QUARAI,3581,RS_BARRA DO QUARAI
520,520.0,4301909.0,Barra do Ribeiro,43.0,RS,Rio Grande do Sul,-30.2939,-51.3014,BARRA DO RIBEIRO,RS_BARRA DO RIBEIRO,RS_BARRA DO RIBEIRO,7491,RS,BARRA DO RIBEIRO,15080,RS_BARRA DO RIBEIRO
521,521.0,4301925.0,Barra do Rio Azul,43.0,RS,Rio Grande do Sul,-27.4069,-52.4084,BARRA DO RIO AZUL,RS_BARRA DO RIO AZUL,RS_BARRA DO RIO AZUL,7492,RS,BARRA DO RIO AZUL,1791,RS_BARRA DO RIO AZUL
522,522.0,2903102.0,Barra do Rocha,29.0,BA,Bahia,-14.2,-39.5991,BARRA DO ROCHA,BA_BARRA DO ROCHA,BA_BARRA DO ROCHA,417,BA,BARRA DO ROCHA,5431,BA_BARRA DO ROCHA
523,523.0,3505401.0,Barra do Turvo,35.0,SP,São Paulo,-24.759,-48.5013,BARRA DO TURVO,SP_BARRA DO TURVO,SP_BARRA DO TURVO,8896,SP,BARRA DO TURVO,8522,SP_BARRA DO TURVO
524,524.0,2800605.0,Barra dos Coqueiros,28.0,SE,Sergipe,-10.8996,-37.0323,BARRA DOS COQUEIROS,SE_BARRA DOS COQUEIROS,SE_BARRA DOS COQUEIROS,8725,SE,BARRA DOS COQUEIROS,24381,SE_BARRA DOS COQUEIROS
525,525.0,4301958.0,Barra Funda,43.0,RS,Rio Grande do Sul,-27.9205,-53.0391,BARRA FUNDA,RS_BARRA FUNDA,RS_BARRA FUNDA,7493,RS,BARRA FUNDA,2606,RS_BARRA FUNDA
526,526.0,3105707.0,Barra Longa,31.0,MG,Minas Gerais,-20.2869,-43.0402,BARRA LONGA,MG_BARRA LONGA,MG_BARRA LONGA,2968,MG,BARRA LONGA,6846,MG_BARRA LONGA
527,527.0,3300407.0,Barra Mansa,33.0,RJ,Rio de Janeiro,-22.5481,-44.1752,BARRA MANSA,RJ_BARRA MANSA,RJ_BARRA MANSA,6901,RJ,BARRA MANSA,209649,RJ_BARRA MANSA
528,528.0,4202107.0,Barra Velha,42.0,SC,Santa Catarina,-26.637,-48.6933,BARRA VELHA,SC_BARRA VELHA,SC_BARRA VELHA,8336,SC,BARRA VELHA,27646,SC_BARRA VELHA
529,529.0,4301800.0,Barracão,43.0,RS,Rio Grande do Sul,-27.6739,-51.4585,BARRACAO,RS_BARRACAO,RS_BARRACAO,7494,RS,BARRACAO,6899,RS_BARRACAO
530,530.0,4102604.0,Barracão,41.0,PR,Paraná,-26.2502,-53.6324,BARRACAO,PR_BARRACAO,PR_BARRACAO,6037,PR,BARRACAO,13826,PR_BARRACAO
531,531.0,2201200.0,Barras,22.0,PI,Piauí,-4.244680000000002,-42.2922,BARRAS,PI_BARRAS,PI_BARRAS,5751,PI,BARRAS,50462,PI_BARRAS
532,532.0,2301950.0,Barreira,23.0,CE,Ceará,-4.28921,-38.6429,BARREIRA,CE_BARREIRA,CE_BARREIRA,1235,CE,BARREIRA,19314,CE_BARREIRA
533,533.0,2903201.0,Barreiras,29.0,BA,Bahia,-12.1439,-44.9968,BARREIRAS,BA_BARREIRAS,BA_BARREIRAS,421,BA,BARREIRAS,137773,BA_BARREIRAS
534,534.0,2201309.0,Barreiras do Piauí,22.0,PI,Piauí,-9.9296,-45.4702,BARREIRAS DO PIAUI,PI_BARREIRAS DO PIAUI,PI_BARREIRAS DO PIAUI,5752,PI,BARREIRAS DO PIAUI,3016,PI_BARREIRAS DO PIAUI
535,535.0,1300508.0,Barreirinha,13.0,AM,Amazonas,-2.79886,-57.0679,BARREIRINHA,AM_BARREIRINHA,AM_BARREIRINHA,208,AM,BARREIRINHA,21730,AM_BARREIRINHA
536,536.0,2101707.0,Barreirinhas,21.0,MA,Maranhão,-2.75863,-42.8232,BARREIRINHAS,MA_BARREIRINHAS,MA_BARREIRINHAS,2627,MA,BARREIRINHAS,41112,MA_BARREIRINHAS
537,537.0,2601409.0,Barreiros,26.0,PE,Pernambuco,-8.81605,-35.1832,BARREIROS,PE_BARREIROS,PE_BARREIROS,5339,PE,BARREIROS,48079,PE_BARREIROS
538,538.0,3505500.0,Barretos,35.0,SP,São Paulo,-20.5531,-48.5698,BARRETOS,SP_BARRETOS,SP_BARRETOS,8899,SP,BARRETOS,138180,SP_BARRETOS
539,539.0,3505609.0,Barrinha,35.0,SP,São Paulo,-21.1864,-48.1636,BARRINHA,SP_BARRINHA,SP_BARRINHA,8900,SP,BARRINHA,34368,SP_BARRINHA
540,540.0,2302008.0,Barro,23.0,CE,Ceará,-7.171880000000002,-38.7741,BARRO,CE_BARRO,CE_BARRO,1241,CE,BARRO,20643,CE_BARRO
541,541.0,5203203.0,Barro Alto,52.0,GO,Goiás,-14.9658,-48.9086,BARRO ALTO,GO_BARRO ALTO,GO_BARRO ALTO,2307,GO,BARRO ALTO,9210,GO_BARRO ALTO
542,542.0,2903235.0,Barro Alto,29.0,BA,Bahia,-11.7605,-41.9054,BARRO ALTO,BA_BARRO ALTO,BA_BARRO ALTO,423,BA,BARRO ALTO,11024,BA_BARRO ALTO
543,543.0,2201408.0,Barro Duro,22.0,PI,Piauí,-5.8167300000000015,-42.5147,BARRO DURO,PI_BARRO DURO,PI_BARRO DURO,5753,PI,BARRO DURO,7900,PI_BARRO DURO
544,544.0,2903300.0,Barro Preto,29.0,BA,Bahia,-14.7948,-39.476,BARRO PRETO,BA_BARRO PRETO,BA_BARRO PRETO,424,BA,BARRO PRETO,7137,BA_BARRO PRETO
545,545.0,2903276.0,Barrocas,29.0,BA,Bahia,-11.5272,-39.0776,BARROCAS,BA_BARROCAS,BA_BARROCAS,427,BA,BARROCAS,10384,BA_BARROCAS
546,546.0,1703107.0,Barrolândia,17.0,TO,Tocantins,-9.83404,-48.7252,BARROLANDIA,TO_BARROLANDIA,TO_BARROLANDIA,9706,TO,BARROLANDIA,5216,TO_BARROLANDIA
547,547.0,2302057.0,Barroquinha,23.0,CE,Ceará,-3.02051,-41.1358,BARROQUINHA,CE_BARROQUINHA,CE_BARROQUINHA,1243,CE,BARROQUINHA,12948,CE_BARROQUINHA
548,548.0,4302006.0,Barros Cassal,43.0,RS,Rio Grande do Sul,-29.0947,-52.5836,BARROS CASSAL,RS_BARROS CASSAL,RS_BARROS CASSAL,7499,RS,BARROS CASSAL,14205,RS_BARROS CASSAL
549,549.0,3105905.0,Barroso,31.0,MG,Minas Gerais,-21.1907,-43.972,BARROSO,MG_BARROSO,MG_BARROSO,2975,MG,BARROSO,23609,MG_BARROSO
550,550.0,3505708.0,Barueri,35.0,SP,São Paulo,-23.5057,-46.879,BARUERI,SP_BARUERI,SP_BARUERI,8901,SP,BARUERI,318108,SP_BARUERI
551,551.0,3505807.0,Bastos,35.0,SP,São Paulo,-21.921,-50.7357,BASTOS,SP_BASTOS,SP_BASTOS,8902,SP,BASTOS,25306,SP_BASTOS
552,552.0,5001904.0,Bataguassu,50.0,MS,Mato Grosso do Sul,-21.7159,-52.4221,BATAGUASSU,MS_BATAGUASSU,MS_BATAGUASSU,4355,MS,BATAGUASSU,23551,MS_BATAGUASSU
553,553.0,2700706.0,Batalha,27.0,AL,Alagoas,-9.6742,-37.133,BATALHA,AL_BATALHA,AL_BATALHA,41,AL,BATALHA,16449,AL_BATALHA
554,554.0,2201507.0,Batalha,22.0,PI,Piauí,-4.0223,-42.0787,BATALHA,PI_BATALHA,PI_BATALHA,5754,PI,BATALHA,22282,PI_BATALHA
555,555.0,3505906.0,Batatais,35.0,SP,São Paulo,-20.8929,-47.5921,BATATAIS,SP_BATATAIS,SP_BATATAIS,8903,SP,BATATAIS,68483,SP_BATATAIS
556,556.0,5002001.0,Batayporã,50.0,MS,Mato Grosso do Sul,-22.2944,-53.2705,BATAYPORA,MS_BATAYPORA,MS_BATAYPORA,4356,MS,BATAYPORA,12385,MS_BATAYPORA
557,557.0,2302107.0,Baturité,23.0,CE,Ceará,-4.32598,-38.8812,BATURITE,CE_BATURITE,CE_BATURITE,1245,CE,BATURITE,33895,CE_BATURITE
558,558.0,3506003.0,Bauru,35.0,SP,São Paulo,-22.3246,-49.0871,BAURU,SP_BAURU,SP_BAURU,8906,SP,BAURU,433736,SP_BAURU
559,559.0,2501807.0,Bayeux,25.0,PB,Paraíba,-7.1238,-34.9293,BAYEUX,PB_BAYEUX,PB_BAYEUX,5047,PB,BAYEUX,98747,PB_BAYEUX
560,560.0,3506102.0,Bebedouro,35.0,SP,São Paulo,-20.9491,-48.4791,BEBEDOURO,SP_BEBEDOURO,SP_BEBEDOURO,8907,SP,BEBEDOURO,90754,SP_BEBEDOURO
561,561.0,2302206.0,Beberibe,23.0,CE,Ceará,-4.17741,-38.1271,BEBERIBE,CE_BEBERIBE,CE_BEBERIBE,1247,CE,BEBERIBE,44486,CE_BEBERIBE
562,562.0,2302305.0,Bela Cruz,23.0,CE,Ceará,-3.04996,-40.1671,BELA CRUZ,CE_BELA CRUZ,CE_BELA CRUZ,1248,CE,BELA CRUZ,24485,CE_BELA CRUZ
563,563.0,5002100.0,Bela Vista,50.0,MS,Mato Grosso do Sul,-22.1073,-56.5263,BELA VISTA,MS_BELA VISTA,MS_BELA VISTA,4358,MS,BELA VISTA,30381,MS_BELA VISTA
564,564.0,4102752.0,Bela Vista da Caroba,41.0,PR,Paraná,-25.8842,-53.6725,BELA VISTA DA CAROBA,PR_BELA VISTA DA CAROBA,PR_BELA VISTA DA CAROBA,6045,PR,BELA VISTA DA CAROBA,3607,PR_BELA VISTA DA CAROBA
565,565.0,5203302.0,Bela Vista de Goiás,52.0,GO,Goiás,-16.9693,-48.9513,BELA VISTA DE GOIAS,GO_BELA VISTA DE GOIAS,GO_BELA VISTA DE GOIAS,2308,GO,BELA VISTA DE GOIAS,29917,GO_BELA VISTA DE GOIAS
566,566.0,3106002.0,Bela Vista de Minas,31.0,MG,Minas Gerais,-19.8302,-43.0922,BELA VISTA DE MINAS,MG_BELA VISTA DE MINAS,MG_BELA VISTA DE MINAS,2977,MG,BELA VISTA DE MINAS,12585,MG_BELA VISTA DE MINAS
567,567.0,2101772.0,Bela Vista do Maranhão,21.0,MA,Maranhão,-3.72618,-45.3075,BELA VISTA DO MARANHAO,MA_BELA VISTA DO MARANHAO,MA_BELA VISTA DO MARANHAO,2629,MA,BELA VISTA DO MARANHAO,8425,MA_BELA VISTA DO MARANHAO
568,568.0,4102802.0,Bela Vista do Paraíso,41.0,PR,Paraná,-22.9937,-51.1927,BELA VISTA DO PARAISO,PR_BELA VISTA DO PARAISO,PR_BELA VISTA DO PARAISO,6047,PR,BELA VISTA DO PARAISO,18618,PR_BELA VISTA DO PARAISO
569,569.0,2201556.0,Bela Vista do Piauí,22.0,PI,Piauí,-7.98809,-41.8675,BELA VISTA DO PIAUI,PI_BELA VISTA DO PIAUI,PI_BELA VISTA DO PIAUI,5755,PI,BELA VISTA DO PIAUI,2813,PI_BELA VISTA DO PIAUI
570,570.0,4202131.0,Bela Vista do Toldo,42.0,SC,Santa Catarina,-26.2746,-50.4664,BELA VISTA DO TOLDO,SC_BELA VISTA DO TOLDO,SC_BELA VISTA DO TOLDO,8341,SC,BELA VISTA DO TOLDO,4264,SC_BELA VISTA DO TOLDO
571,571.0,2101731.0,Belágua,21.0,MA,Maranhão,-3.15485,-43.5122,BELAGUA,MA_BELAGUA,MA_BELAGUA,2630,MA,BELAGUA,5638,MA_BELAGUA
572,572.0,2700805.0,Belém,27.0,AL,Alagoas,-9.57047,-36.4904,BELEM,AL_BELEM,AL_BELEM,42,AL,BELEM,6662,AL_BELEM
573,573.0,1501402.0,Belém,15.0,PA,Pará,-1.4554,-48.4898,BELEM,PA_BELEM,PA_BELEM,4763,PA,BELEM,1759978,PA_BELEM
574,574.0,2501906.0,Belém,25.0,PB,Paraíba,-6.742610000000001,-35.5166,BELEM,PB_BELEM,PB_BELEM,5049,PB,BELEM,16392,PB_BELEM
575,575.0,2601508.0,Belém de Maria,26.0,PE,Pernambuco,-8.62504,-35.8335,BELEM DE MARIA,PE_BELEM DE MARIA,PE_BELEM DE MARIA,5341,PE,BELEM DE MARIA,12974,PE_BELEM DE MARIA
576,576.0,2601607.0,Belém do São Francisco,26.0,PE,Pernambuco,-8.75046,-38.9623,BELEM DO SAO FRANCISCO,PE_BELEM DO SAO FRANCISCO,PE_BELEM DO SAO FRANCISCO,5343,PE,BELEM DO SAO FRANCISCO,13433,PE_BELEM DO SAO FRANCISCO
577,577.0,2502003.0,Belém do Brejo do Cruz,25.0,PB,Paraíba,-6.18515,-37.5348,BELEM DO BREJO DO CRUZ,PB_BELEM DO BREJO DO CRUZ,PB_BELEM DO BREJO DO CRUZ,5050,PB,BELEM DO BREJO DO CRUZ,7833,PB_BELEM DO BREJO DO CRUZ
578,578.0,2201572.0,Belém do Piauí,22.0,PI,Piauí,-7.366519999999999,-40.9688,BELEM DO PIAUI,PI_BELEM DO PIAUI,PI_BELEM DO PIAUI,5756,PI,BELEM DO PIAUI,2848,PI_BELEM DO PIAUI
579,579.0,3300456.0,Belford Roxo,33.0,RJ,Rio de Janeiro,-22.764,-43.3992,BELFORD ROXO,RJ_BELFORD ROXO,RJ_BELFORD ROXO,6904,RJ,BELFORD ROXO,486451,RJ_BELFORD ROXO
580,580.0,3106101.0,Belmiro Braga,31.0,MG,Minas Gerais,-21.944000000000006,-43.4084,BELMIRO BRAGA,MG_BELMIRO BRAGA,MG_BELMIRO BRAGA,2979,MG,BELMIRO BRAGA,3460,MG_BELMIRO BRAGA
581,581.0,4202156.0,Belmonte,42.0,SC,Santa Catarina,-26.843000000000004,-53.5758,BELMONTE,SC_BELMONTE,SC_BELMONTE,8342,SC,BELMONTE,2898,SC_BELMONTE
582,582.0,2903409.0,Belmonte,29.0,BA,Bahia,-15.8608,-38.8758,BELMONTE,BA_BELMONTE,BA_BELMONTE,435,BA,BELMONTE,20211,BA_BELMONTE
583,583.0,2903508.0,Belo Campo,29.0,BA,Bahia,-15.0334,-41.2652,BELO CAMPO,BA_BELO CAMPO,BA_BELO CAMPO,436,BA,BELO CAMPO,17548,BA_BELO CAMPO
584,584.0,3106200.0,Belo Horizonte,31.0,MG,Minas Gerais,-19.9102,-43.9266,BELO HORIZONTE,MG_BELO HORIZONTE,MG_BELO HORIZONTE,2980,MG,BELO HORIZONTE,3061199,MG_BELO HORIZONTE
585,585.0,2601706.0,Belo Jardim,26.0,PE,Pernambuco,-8.3313,-36.4258,BELO JARDIM,PE_BELO JARDIM,PE_BELO JARDIM,5344,PE,BELO JARDIM,71638,PE_BELO JARDIM
586,586.0,2700904.0,Belo Monte,27.0,AL,Alagoas,-9.82272,-37.277,BELO MONTE,AL_BELO MONTE,AL_BELO MONTE,43,AL,BELO MONTE,6694,AL_BELO MONTE
587,587.0,3106309.0,Belo Oriente,31.0,MG,Minas Gerais,-19.2199,-42.4828,BELO ORIENTE,MG_BELO ORIENTE,MG_BELO ORIENTE,2981,MG,BELO ORIENTE,20059,MG_BELO ORIENTE
588,588.0,3106408.0,Belo Vale,31.0,MG,Minas Gerais,-20.4077,-44.0275,BELO VALE,MG_BELO VALE,MG_BELO VALE,2982,MG,BELO VALE,8601,MG_BELO VALE
589,589.0,1501451.0,Belterra,15.0,PA,Pará,-2.6360900000000003,-54.9374,BELTERRA,PA_BELTERRA,PA_BELTERRA,4765,PA,BELTERRA,15787,PA_BELTERRA
590,590.0,2201606.0,Beneditinos,22.0,PI,Piauí,-5.45676,-42.3638,BENEDITINOS,PI_BENEDITINOS,PI_BENEDITINOS,5757,PI,BENEDITINOS,10262,PI_BENEDITINOS
591,591.0,2101806.0,Benedito Leite,21.0,MA,Maranhão,-7.210369999999998,-44.5577,BENEDITO LEITE,MA_BENEDITO LEITE,MA_BENEDITO LEITE,2631,MA,BENEDITO LEITE,5219,MA_BENEDITO LEITE
592,592.0,4202206.0,Benedito Novo,42.0,SC,Santa Catarina,-26.781,-49.3593,BENEDITO NOVO,SC_BENEDITO NOVO,SC_BENEDITO NOVO,8343,SC,BENEDITO NOVO,12433,SC_BENEDITO NOVO
593,593.0,1501501.0,Benevides,15.0,PA,Pará,-1.36183,-48.2434,BENEVIDES,PA_BENEVIDES,PA_BENEVIDES,4766,PA,BENEVIDES,52986,PA_BENEVIDES
594,594.0,1300607.0,Benjamin Constant,13.0,AM,Amazonas,-4.377680000000002,-70.0342,BENJAMIN CONSTANT,AM_BENJAMIN CONSTANT,AM_BENJAMIN CONSTANT,210,AM,BENJAMIN CONSTANT,29481,AM_BENJAMIN CONSTANT
595,595.0,4302055.0,Benjamin Constant do Sul,43.0,RS,Rio Grande do Sul,-27.5086,-52.5995,BENJAMIN CONSTANT DO SUL,RS_BENJAMIN CONSTANT DO SUL,RS_BENJAMIN CONSTANT DO SUL,7503,RS,BENJAMIN CONSTANT DO SUL,2261,RS_BENJAMIN CONSTANT DO SUL
596,596.0,3506201.0,Bento de Abreu,35.0,SP,São Paulo,-21.2686,-50.81399999999999,BENTO DE ABREU,SP_BENTO DE ABREU,SP_BENTO DE ABREU,8908,SP,BENTO DE ABREU,2960,SP_BENTO DE ABREU
597,597.0,2401602.0,Bento Fernandes,24.0,RN,Rio Grande do Norte,-5.69906,-35.813,BENTO FERNANDES,RN_BENTO FERNANDES,RN_BENTO FERNANDES,7145,RN,BENTO FERNANDES,5667,RN_BENTO FERNANDES
598,598.0,4302105.0,Bento Gonçalves,43.0,RS,Rio Grande do Sul,-29.1662,-51.5165,BENTO GONCALVES,RS_BENTO GONCALVES,RS_BENTO GONCALVES,7504,RS,BENTO GONCALVES,110509,RS_BENTO GONCALVES
599,599.0,2101905.0,Bequimão,21.0,MA,Maranhão,-2.44162,-44.7842,BEQUIMAO,MA_BEQUIMAO,MA_BEQUIMAO,2632,MA,BEQUIMAO,18097,MA_BEQUIMAO
600,600.0,3106507.0,Berilo,31.0,MG,Minas Gerais,-16.9567,-42.4606,BERILO,MG_BERILO,MG_BERILO,2985,MG,BERILO,13299,MG_BERILO
601,601.0,3106655.0,Berizal,31.0,MG,Minas Gerais,-15.61,-41.7432,BERIZAL,MG_BERIZAL,MG_BERIZAL,2986,MG,BERIZAL,3804,MG_BERIZAL
602,602.0,2502052.0,Bernardino Batista,25.0,PB,Paraíba,-6.44572,-38.5521,BERNARDINO BATISTA,PB_BERNARDINO BATISTA,PB_BERNARDINO BATISTA,5051,PB,BERNARDINO BATISTA,3202,PB_BERNARDINO BATISTA
603,603.0,3506300.0,Bernardino de Campos,35.0,SP,São Paulo,-23.0164,-49.4679,BERNARDINO DE CAMPOS,SP_BERNARDINO DE CAMPOS,SP_BERNARDINO DE CAMPOS,8909,SP,BERNARDINO DE CAMPOS,14074,SP_BERNARDINO DE CAMPOS
604,604.0,2101939.0,Bernardo do Mearim,21.0,MA,Maranhão,-4.62666,-44.7608,BERNARDO DO MEARIM,MA_BERNARDO DO MEARIM,MA_BERNARDO DO MEARIM,2633,MA,BERNARDO DO MEARIM,3875,MA_BERNARDO DO MEARIM
605,605.0,1703206.0,Bernardo Sayão,17.0,TO,Tocantins,-7.874810000000001,-48.8893,BERNARDO SAYAO,TO_BERNARDO SAYAO,TO_BERNARDO SAYAO,9707,TO,BERNARDO SAYAO,3848,TO_BERNARDO SAYAO
606,606.0,3506359.0,Bertioga,35.0,SP,São Paulo,-23.8486,-46.1396,BERTIOGA,SP_BERTIOGA,SP_BERTIOGA,8910,SP,BERTIOGA,51054,SP_BERTIOGA
607,607.0,2201705.0,Bertolínia,22.0,PI,Piauí,-7.633380000000002,-43.9498,BERTOLINIA,PI_BERTOLINIA,PI_BERTOLINIA,5758,PI,BERTOLINIA,5190,PI_BERTOLINIA
608,608.0,3106606.0,Bertópolis,31.0,MG,Minas Gerais,-17.059,-40.58,BERTOPOLIS,MG_BERTOPOLIS,MG_BERTOPOLIS,2987,MG,BERTOPOLIS,4549,MG_BERTOPOLIS
609,609.0,1300631.0,Beruri,13.0,AM,Amazonas,-3.89874,-61.3616,BERURI,AM_BERURI,AM_BERURI,211,AM,BERURI,12307,AM_BERURI
610,610.0,2601805.0,Betânia,26.0,PE,Pernambuco,-8.26787,-38.0345,BETANIA,PE_BETANIA,PE_BETANIA,5347,PE,BETANIA,13451,PE_BETANIA
611,611.0,2201739.0,Betânia do Piauí,22.0,PI,Piauí,-8.14376,-40.7989,BETANIA DO PIAUI,PI_BETANIA DO PIAUI,PI_BETANIA DO PIAUI,5759,PI,BETANIA DO PIAUI,4294,PI_BETANIA DO PIAUI
612,612.0,3106705.0,Betim,31.0,MG,Minas Gerais,-19.9668,-44.2008,BETIM,MG_BETIM,MG_BETIM,2988,MG,BETIM,374105,MG_BETIM
613,613.0,2601904.0,Bezerros,26.0,PE,Pernambuco,-8.2328,-35.796,BEZERROS,PE_BEZERROS,PE_BEZERROS,5348,PE,BEZERROS,65581,PE_BEZERROS
614,614.0,3106804.0,Bias Fortes,31.0,MG,Minas Gerais,-21.602,-43.7574,BIAS FORTES,MG_BIAS FORTES,MG_BIAS FORTES,2989,MG,BIAS FORTES,4327,MG_BIAS FORTES
615,615.0,3106903.0,Bicas,31.0,MG,Minas Gerais,-21.7232,-43.056,BICAS,MG_BICAS,MG_BICAS,2990,MG,BICAS,16471,MG_BICAS
616,616.0,4202305.0,Biguaçu,42.0,SC,Santa Catarina,-27.496,-48.6598,BIGUACU,SC_BIGUACU,SC_BIGUACU,8344,SC,BIGUACU,49505,SC_BIGUACU
617,617.0,3506409.0,Bilac,35.0,SP,São Paulo,-21.404,-50.4746,BILAC,SP_BILAC,SP_BILAC,8911,SP,BILAC,8615,SP_BILAC
618,618.0,3107000.0,Biquinhas,31.0,MG,Minas Gerais,-18.7754,-45.4974,BIQUINHAS,MG_BIQUINHAS,MG_BIQUINHAS,2992,MG,BIQUINHAS,2969,MG_BIQUINHAS
619,619.0,3506508.0,Birigui,35.0,SP,São Paulo,-21.291,-50.3432,BIRIGUI,SP_BIRIGUI,SP_BIRIGUI,8912,SP,BIRIGUI,125755,SP_BIRIGUI
620,620.0,3506607.0,Biritiba-Mirim,35.0,SP,São Paulo,-23.5698,-46.0407,BIRITIBA-MIRIM,SP_BIRITIBA-MIRIM,SP_BIRITIBA MIRIM,8913,SP,BIRITIBA MIRIM,29078,SP_BIRITIBA MIRIM
621,621.0,2903607.0,Biritinga,29.0,BA,Bahia,-11.6072,-38.8051,BIRITINGA,BA_BIRITINGA,BA_BIRITINGA,440,BA,BIRITINGA,14940,BA_BIRITINGA
622,622.0,4102901.0,Bituruna,41.0,PR,Paraná,-26.1607,-51.5518,BITURUNA,PR_BITURUNA,PR_BITURUNA,6054,PR,BITURUNA,19503,PR_BITURUNA
623,623.0,4202404.0,Blumenau,42.0,SC,Santa Catarina,-26.9155,-49.0709,BLUMENAU,SC_BLUMENAU,SC_BLUMENAU,8345,SC,BLUMENAU,396040,SC_BLUMENAU
624,624.0,3201001.0,Boa Esperança,32.0,ES,Espírito Santo,-18.5395,-40.3025,BOA ESPERANCA,ES_BOA ESPERANCA,ES_BOA ESPERANCA,1841,ES,BOA ESPERANCA,18488,ES_BOA ESPERANCA
625,625.0,3107109.0,Boa Esperança,31.0,MG,Minas Gerais,-21.0927,-45.5612,BOA ESPERANCA,MG_BOA ESPERANCA,MG_BOA ESPERANCA,2994,MG,BOA ESPERANCA,44274,MG_BOA ESPERANCA
626,626.0,4103008.0,Boa Esperança,41.0,PR,Paraná,-24.2467,-52.7876,BOA ESPERANCA,PR_BOA ESPERANCA,PR_BOA ESPERANCA,6055,PR,BOA ESPERANCA,6566,PR_BOA ESPERANCA
627,627.0,4103024.0,Boa Esperança do Iguaçu,41.0,PR,Paraná,-25.6324,-53.2108,BOA ESPERANCA DO IGUACU,PR_BOA ESPERANCA DO IGUACU,PR_BOA ESPERANCA DO IGUACU,6056,PR,BOA ESPERANCA DO IGUACU,2517,PR_BOA ESPERANCA DO IGUACU
628,628.0,3506706.0,Boa Esperança do Sul,35.0,SP,São Paulo,-21.9918,-48.3906,BOA ESPERANCA DO SUL,SP_BOA ESPERANCA DO SUL,SP_BOA ESPERANCA DO SUL,8916,SP,BOA ESPERANCA DO SUL,14894,SP_BOA ESPERANCA DO SUL
629,629.0,2201770.0,Boa Hora,22.0,PI,Piauí,-4.41404,-42.1357,BOA HORA,PI_BOA HORA,PI_BOA HORA,5760,PI,BOA HORA,3663,PI_BOA HORA
630,630.0,2903706.0,Boa Nova,29.0,BA,Bahia,-14.3598,-40.2064,BOA NOVA,BA_BOA NOVA,BA_BOA NOVA,442,BA,BOA NOVA,15612,BA_BOA NOVA
631,631.0,2502102.0,Boa Ventura,25.0,PB,Paraíba,-7.40982,-38.2113,BOA VENTURA,PB_BOA VENTURA,PB_BOA VENTURA,5052,PB,BOA VENTURA,5365,PB_BOA VENTURA
632,632.0,4103040.0,Boa Ventura de São Roque,41.0,PR,Paraná,-24.8688,-51.6276,BOA VENTURA DE SAO ROQUE,PR_BOA VENTURA DE SAO ROQUE,PR_BOA VENTURA DE SAO ROQUE,6057,PR,BOA VENTURA DE SAO ROQUE,5209,PR_BOA VENTURA DE SAO ROQUE
633,633.0,2302404.0,Boa Viagem,23.0,CE,Ceará,-5.11258,-39.7337,BOA VIAGEM,CE_BOA VIAGEM,CE_BOA VIAGEM,1258,CE,BOA VIAGEM,53382,CE_BOA VIAGEM
634,634.0,1400100.0,Boa Vista,14.0,RR,Roraima,2.82384,-60.6753,BOA VISTA,RR_BOA VISTA,RR_BOA VISTA,7411,RR,BOA VISTA,344721,RR_BOA VISTA
635,635.0,2502151.0,Boa Vista,25.0,PB,Paraíba,-7.26365,-36.2357,BOA VISTA,PB_BOA VISTA,PB_BOA VISTA,5053,PB,BOA VISTA,5447,PB_BOA VISTA
636,636.0,4103057.0,Boa Vista da Aparecida,41.0,PR,Paraná,-25.4308,-53.4117,BOA VISTA DA APARECIDA,PR_BOA VISTA DA APARECIDA,PR_BOA VISTA DA APARECIDA,6059,PR,BOA VISTA DA APARECIDA,10419,PR_BOA VISTA DA APARECIDA
637,637.0,4302154.0,Boa Vista das Missões,43.0,RS,Rio Grande do Sul,-27.6671,-53.3102,BOA VISTA DAS MISSOES,RS_BOA VISTA DAS MISSOES,RS_BOA VISTA DAS MISSOES,7507,RS,BOA VISTA DAS MISSOES,2300,RS_BOA VISTA DAS MISSOES
638,638.0,4302204.0,Boa Vista do Buricá,43.0,RS,Rio Grande do Sul,-27.6693,-54.1082,BOA VISTA DO BURICA,RS_BOA VISTA DO BURICA,RS_BOA VISTA DO BURICA,7508,RS,BOA VISTA DO BURICA,9151,RS_BOA VISTA DO BURICA
639,639.0,4302220.0,Boa Vista do Cadeado,43.0,RS,Rio Grande do Sul,-28.5791,-53.8108,BOA VISTA DO CADEADO,RS_BOA VISTA DO CADEADO,RS_BOA VISTA DO CADEADO,7509,RS,BOA VISTA DO CADEADO,1530,RS_BOA VISTA DO CADEADO
640,640.0,2101970.0,Boa Vista do Gurupi,21.0,MA,Maranhão,-1.77614,-46.3002,BOA VISTA DO GURUPI,MA_BOA VISTA DO GURUPI,MA_BOA VISTA DO GURUPI,2634,MA,BOA VISTA DO GURUPI,6119,MA_BOA VISTA DO GURUPI
641,641.0,4302238.0,Boa Vista do Incra,43.0,RS,Rio Grande do Sul,-28.8185,-53.39100000000001,BOA VISTA DO INCRA,RS_BOA VISTA DO INCRA,RS_BOA VISTA DO INCRA,7510,RS,BOA VISTA DO INCRA,2091,RS_BOA VISTA DO INCRA
642,642.0,1300680.0,Boa Vista do Ramos,13.0,AM,Amazonas,-2.9740900000000003,-57.5873,BOA VISTA DO RAMOS,AM_BOA VISTA DO RAMOS,AM_BOA VISTA DO RAMOS,212,AM,BOA VISTA DO RAMOS,10754,AM_BOA VISTA DO RAMOS
643,643.0,4302253.0,Boa Vista do Sul,43.0,RS,Rio Grande do Sul,-29.3544,-51.6687,BOA VISTA DO SUL,RS_BOA VISTA DO SUL,RS_BOA VISTA DO SUL,7511,RS,BOA VISTA DO SUL,1982,RS_BOA VISTA DO SUL
644,644.0,2903805.0,Boa Vista do Tupim,29.0,BA,Bahia,-12.6498,-40.6064,BOA VISTA DO TUPIM,BA_BOA VISTA DO TUPIM,BA_BOA VISTA DO TUPIM,445,BA,BOA VISTA DO TUPIM,17955,BA_BOA VISTA DO TUPIM
645,645.0,2701001.0,Boca da Mata,27.0,AL,Alagoas,-9.64308,-36.2125,BOCA DA MATA,AL_BOCA DA MATA,AL_BOCA DA MATA,45,AL,BOCA DA MATA,28004,AL_BOCA DA MATA
646,646.0,1300706.0,Boca do Acre,13.0,AM,Amazonas,-8.74232,-67.3919,BOCA DO ACRE,AM_BOCA DO ACRE,AM_BOCA DO ACRE,213,AM,BOCA DO ACRE,26030,AM_BOCA DO ACRE
647,647.0,3506805.0,Bocaina,35.0,SP,São Paulo,-22.1365,-48.523,BOCAINA,SP_BOCAINA,SP_BOCAINA,8918,SP,BOCAINA,12122,SP_BOCAINA
648,648.0,2201804.0,Bocaina,22.0,PI,Piauí,-6.94124,-41.3168,BOCAINA,PI_BOCAINA,PI_BOCAINA,5761,PI,BOCAINA,4808,PI_BOCAINA
649,649.0,3107208.0,Bocaina de Minas,31.0,MG,Minas Gerais,-22.1697,-44.3972,BOCAINA DE MINAS,MG_BOCAINA DE MINAS,MG_BOCAINA DE MINAS,2998,MG,BOCAINA DE MINAS,4852,MG_BOCAINA DE MINAS
650,650.0,4202438.0,Bocaina do Sul,42.0,SC,Santa Catarina,-27.7455,-49.9423,BOCAINA DO SUL,SC_BOCAINA DO SUL,SC_BOCAINA DO SUL,8346,SC,BOCAINA DO SUL,2913,SC_BOCAINA DO SUL
651,651.0,3107307.0,Bocaiúva,31.0,MG,Minas Gerais,-17.1135,-43.8104,BOCAIUVA,MG_BOCAIUVA,MG_BOCAIUVA,2999,MG,BOCAIUVA,53981,MG_BOCAIUVA
652,652.0,4103107.0,Bocaiúva do Sul,41.0,PR,Paraná,-25.2066,-49.1141,BOCAIUVA DO SUL,PR_BOCAIUVA DO SUL,PR_BOCAIUVA DO SUL,6061,PR,BOCAIUVA DO SUL,12147,PR_BOCAIUVA DO SUL
653,653.0,2401651.0,Bodó,24.0,RN,Rio Grande do Norte,-5.98027,-36.4167,BODO,RN_BODO,RN_BODO,7147,RN,BODO,2794,RN_BODO
654,654.0,2602001.0,Bodocó,26.0,PE,Pernambuco,-7.777589999999999,-39.9338,BODOCO,PE_BODOCO,PE_BODOCO,5351,PE,BODOCO,35166,PE_BODOCO
655,655.0,5002159.0,Bodoquena,50.0,MS,Mato Grosso do Sul,-20.537,-56.7127,BODOQUENA,MS_BODOQUENA,MS_BODOQUENA,4360,MS,BODOQUENA,9039,MS_BODOQUENA
656,656.0,3506904.0,Bofete,35.0,SP,São Paulo,-23.1055,-48.2582,BOFETE,SP_BOFETE,SP_BOFETE,8919,SP,BOFETE,9914,SP_BOFETE
657,657.0,3507001.0,Boituva,35.0,SP,São Paulo,-23.2855,-47.6786,BOITUVA,SP_BOITUVA,SP_BOITUVA,8920,SP,BOITUVA,53985,SP_BOITUVA
658,658.0,2602100.0,Bom Conselho,26.0,PE,Pernambuco,-9.16919,-36.6857,BOM CONSELHO,PE_BOM CONSELHO,PE_BOM CONSELHO,5352,PE,BOM CONSELHO,45990,PE_BOM CONSELHO
659,659.0,3107406.0,Bom Despacho,31.0,MG,Minas Gerais,-19.7386,-45.2622,BOM DESPACHO,MG_BOM DESPACHO,MG_BOM DESPACHO,3000,MG,BOM DESPACHO,53602,MG_BOM DESPACHO
660,660.0,3300506.0,Bom Jardim,33.0,RJ,Rio de Janeiro,-22.1545,-42.4251,BOM JARDIM,RJ_BOM JARDIM,RJ_BOM JARDIM,6909,RJ,BOM JARDIM,29798,RJ_BOM JARDIM
661,661.0,2102002.0,Bom Jardim,21.0,MA,Maranhão,-3.54129,-45.606,BOM JARDIM,MA_BOM JARDIM,MA_BOM JARDIM,2635,MA,BOM JARDIM,29363,MA_BOM JARDIM
662,662.0,2602209.0,Bom Jardim,26.0,PE,Pernambuco,-7.79695,-35.5784,BOM JARDIM,PE_BOM JARDIM,PE_BOM JARDIM,5353,PE,BOM JARDIM,40002,PE_BOM JARDIM
663,663.0,4202503.0,Bom Jardim da Serra,42.0,SC,Santa Catarina,-28.3377,-49.6373,BOM JARDIM DA SERRA,SC_BOM JARDIM DA SERRA,SC_BOM JARDIM DA SERRA,8348,SC,BOM JARDIM DA SERRA,5100,SC_BOM JARDIM DA SERRA
